State,Routine,Timestamp,Yaw,Pitch,Roll,q1,q2,q3,q4,Vel_Yaw,Vel_Pitch,Vel_Roll,Vel_Mag,Accel_Yaw,Accel_Pitch,Accel_Roll,Target_Yaw,Target_Pitch,Target_Roll,q1_Error,q2_Error,q3_Error,q4_Error,Yaw_Error,Pitch_Error,Roll_Error,Req_InertTorque_Yaw,Req_InertTorque_Pitch,Req_InertTorque_Roll,Req_Torque_M1,Req_Torque_M2,Req_Torque_M3,Req_Torque_M4,Accel_M1,Accel_M2,Accel_M3,Accel_M4,Duty_M1,Duty_M2,Duty_M3,Duty_M4,RPM_M1,RPM_M2,RPM_M3,RPM_M4,TargetRPM_M1,TargetRPM_M2,TargetRPM_M3,TargetRPM_M4
running,attitudeInput,1618014595.812295,138.40613220766,-38.20133550315447,-0.7163449334553924,0.8826333353615803,-0.12170483280456738,0.30380487758188573,0.3374150638871357,4.628400094052846,-0.6474483370548636,9.516586990364804,10.602202824175933,0.0,0.0,0.0,0,0,0,0.8826333353615803,-0.12170483280456738,0.30380487758188573,0.3374150638871357,138.40613220766,-38.20133550315447,-0.7163449334553924,-14.964808235429738,3.01588903165565,-31.372359088092875,0.0,0.0,0.0,0.0,60975.25950645719,27679.670396324214,-12698.309561464193,20597.279548668776,0,0,0,0,0,0,0,0,0,0,0,0
running,attitudeInput,1618014595.862561,169.75212828522527,-29.387252760212913,-24.938987383934126,0.9358128874155454,-0.2301429309640452,0.22802407739850192,0.13890101223828605,5.284707971289865,-3.2396445623717116,-6.435109813288806,8.934991524417084,0.0,0.0,0.0,0,0,0,0.9358128874155454,-0.2301429309640452,0.22802407739850192,0.13890101223828605,169.75212828522527,-29.387252760212913,-24.938987383934126,-16.765539952556285,11.65698813615422,21.678874746970173,0.0,0.0,0.0,0.0,1588.1912094479392,40730.481874652745,52497.976842748074,13355.68617754327,0,0,0,0,0,0,0,0,0,0,0,0
running,attitudeInput,1618014595.9114199,159.96745560898358,-22.893803462673695,-22.913137273373867,0.9390840416750209,-0.2255370122332731,0.1576816644865933,0.20589004703708658,-6.782531342691263,-1.1455853813724186,3.2791537567576077,7.6202327156761465,0.0,0.0,0.0,0,0,0,0.9390840416750209,-0.2255370122332731,0.1576816644865933,0.20589004703708658,159.96745560898358,-22.893803462673695,-22.913137273373867,21.65305977459821,4.7121384704392915,-10.52012745211543,0.0,0.0,0.0,0.0,-22574.212443372286,-29393.834713181885,-47279.250858571606,-40459.62858876201,0,0,0,0,0,0,0,0,0,0,0,0
running,attitudeInput,1618014595.960371,148.42827423296234,-11.42023593481137,-21.24600785817693,0.936110232503197,-0.20311631083043513,0.04420095345591045,0.28370349414667567,-6.281190114218535,9.894953680961466,-3.1647400737379523,12.139976825910846,0.0,0.0,0.0,0,0,0,0.936110232503197,-0.20311631083043513,0.04420095345591045,0.28370349414667567,148.42827423296234,-11.42023593481137,-21.24600785817693,19.098266515972277,-39.396001234454396,10.459436382852825,0.0,0.0,0.0,0.0,-43087.0662646377,-77063.79085835791,-18524.55228219044,15452.172311529786,0,0,0,0,0,0,0,0,0,0,0,0
running,attitudeInput,1618014596.010315,153.4048306261056,-29.4993518575363,-4.360603576305393,0.9382102874165904,-0.09432120917139403,0.23912885129382708,0.2316945371928737,-9.202838259917225,-9.17052045534623,9.26162424475992,15.955198560696282,0.0,0.0,0.0,0,0,0,0.9382102874165904,-0.09432120917139403,0.23912885129382708,0.2316945371928737,153.4048306261056,-29.4993518575363,-4.360603576305393,29.218402453497283,31.364336486635572,-30.53320673404295,0.0,0.0,0.0,0.0,-11278.281417138493,-10302.385803740442,-82981.21930807355,-83957.11492147163,0,0,0,0,0,0,0,0,0,0,0,0
running,attitudeInput,1618014596.061862,144.97711519351074,-30.06202980978277,6.862678358276607,0.9240474616528895,-0.02276938561173787,0.26427294714961497,0.2752774111629437,1.8044317287497087,7.537679753261839,-0.401676274221556,7.761052361356973,0.0,0.0,0.0,0,0,0,0.9240474616528895,-0.02276938561173787,0.26427294714961497,0.2752774111629437,144.97711519351074,-30.06202980978277,6.862678358276607,-5.9912191518044375,-24.119951228830306,1.4626582987407306,0.0,0.0,0.0,0.0,7946.5087330977985,-18657.222769685948,11381.355850984537,37985.08735376829,0,0,0,0,0,0,0,0,0,0,0,0
running,attitudeInput,1618014596.1099992,154.08386663445364,-23.398917663128827,14.362483879041102,0.9524866760833773,0.0741802276396457,0.22351329892218202,0.19315338701636406,-3.1636135754529975,-1.3009635617767108,6.878358635494555,7.681977256041817,0.0,0.0,0.0,0,0,0,0.9524866760833773,0.0741802276396457,0.22351329892218202,0.19315338701636406,154.08386663445364,-23.398917663128827,14.362483879041102,9.83961648009789,5.239580134416557,-22.806055996883202,0.0,0.0,0.0,0.0,10906.947344535869,-9719.250530787567,-42649.864782192744,-22023.66690686931,0,0,0,0,0,0,0,0,0,0,0,0
running,attitudeInput,1618014596.160647,148.0589728533075,-28.283965238818844,9.087543635368721,0.9346619523129763,0.006841670888553751,0.2552936104003377,0.2473568251063809,-6.74939114931214,-5.811478000823986,-7.572087257875129,11.690340580211899,0.0,0.0,0.0,0,0,0,0.9346619523129763,0.006841670888553751,0.2552936104003377,0.2473568251063809,148.0589728533075,-28.283965238818844,9.087543635368721,21.289654836731884,20.19532461352503,25.22756972009649,0.0,0.0,0.0,0.0,-63962.25179132672,-10627.615184048369,-4718.855559299357,-58053.49216657771,0,0,0,0,0,0,0,0,0,0,0,0
running,attitudeInput,1618014596.213373,134.6962412723343,-13.261176925460864,17.27463262711687,0.912971208642339,0.0937019423394429,0.16280383891519623,0.36221323585208376,-3.5310516218751737,1.7428247126070564,9.669160406018918,10.44023115129857,0.0,0.0,0.0,0,0,0,0.912971208642339,0.0937019423394429,0.16280383891519623,0.36221323585208376,134.6962412723343,-13.261176925460864,17.27463262711687,10.349619872030054,-7.0684006504437695,-32.25458332955068,0.0,0.0,0.0,0.0,21178.57190963366,-24993.674303537548,-54566.776599672,-8394.530386500792,0,0,0,0,0,0,0,0,0,0,0,0
running,attitudeInput,1618014596.259596,142.73139779622508,-31.701154983821375,29.292626057650708,0.9039940541085862,0.1460499567762469,0.3281221210313507,0.23194834328329803,6.178088004994117,-5.596635510944347,6.638060010639432,10.656216080047638,0.0,0.0,0.0,0,0,0,0.9039940541085862,0.1460499567762469,0.3281221210313507,0.23194834328329803,142.73139779622508,-31.701154983821375,29.292626057650708,-20.02151892543411,19.387788569793486,-22.125171961581938,0.0,0.0,0.0,0.0,58273.956081310665,55059.77630263966,6316.104264234117,9530.284042905121,0,0,0,0,0,0,0,0,0,0,0,0
running,attitudeInput,1618014596.311506,152.06730881275433,-21.925160353060832,25.08669639670794,0.9399568735277126,0.16210999777010796,0.23160115578000637,0.19121278506509087,5.134184196596728,2.9214873646674633,-0.9673120033445032,5.985869051216338,0.0,0.0,0.0,0,0,0,0.9399568735277126,0.16210999777010796,0.23160115578000637,0.19121278506509087,152.06730881275433,-21.925160353060832,25.08669639670794,-16.692073725097412,-8.815984040921615,3.147427229352355,0.0,0.0,0.0,0.0,23228.936932241082,16573.03307432736,30620.226720708288,37276.13057862201,0,0,0,0,0,0,0,0,0,0,0,0
running,attitudeInput,1618014596.360474,163.73367060709253,-40.19470599008238,19.337691558111022,0.9246232496143371,0.10821798196525563,0.35764246959007884,0.07384157770186613,7.295176105773399,-5.558221133662133,5.135856209468412,10.511443078344225,0.0,0.0,0.0,0,0,0,0.9246232496143371,0.10821798196525563,0.35764246959007884,0.07384157770186613,163.73367060709253,-40.19470599008238,19.337691558111022,-23.441899546188885,19.338617260096974,-17.174777254927516,0.0,0.0,0.0,0.0,57978.432161169825,60519.168986620876,17645.88545137164,15105.148625920578,0,0,0,0,0,0,0,0,0,0,0,0
running,attitudeInput,1618014596.410677,160.95400970174387,-49.66105930617594,16.893469639789583,0.8955436564921435,0.06275139086119846,0.43171172173993577,0.08768586872471155,2.4339654716569044,-1.9422218704185992,-0.21737487370185604,3.121484510111693,0.0,0.0,0.0,0,0,0,0.8955436564921435,0.06275139086119846,0.43171172173993577,0.08768586872471155,160.95400970174387,-49.66105930617594,16.893469639789583,-7.906424970771289,7.311754430195969,0.6081348148505913,0.0,0.0,0.0,0.0,12039.130399239832,21338.502908441456,13467.249405486555,4167.876896284926,0,0,0,0,0,0,0,0,0,0,0,0
running,attitudeInput,1618014596.462935,176.91351080192737,-46.20592073519216,-2.5447745828118653,0.9190062247292469,-0.03098213711738717,0.39159553484221454,0.03347541157590454,5.964389650216334,5.6440375161644045,-7.667929125154722,11.235045191358825,0.0,0.0,0.0,0,0,0,0.9190062247292469,-0.03098213711738717,0.39159553484221454,0.03347541157590454,176.91351080192737,-46.20592073519216,-2.5447745828118653,-19.026408731495266,-17.813660457511627,25.49300854719556,0.0,0.0,0.0,0.0,756.5305420622037,9773.464529928475,60623.272494017074,51606.33850615081,0,0,0,0,0,0,0,0,0,0,0,0
running,attitudeInput,1618014596.5091121,-156.9051470916524,-62.16238446139947,-19.63792883681704,0.8444338188246042,-0.04126772917137836,0.5276304269784223,-0.08267183728998218,8.969726091952998,-5.170236221583527,-3.7458636930717146,11.009942032486345,0.0,0.0,0.0,0,0,0,0.8444338188246042,-0.04126772917137836,0.5276304269784223,-0.08267183728998218,-156.9051470916524,-62.16238446139947,-19.63792883681704,-28.72509135998519,16.357012652356836,12.26848384328947,0.0,0.0,0.0,0.0,31928.62803778944,65540.10250889434,60739.43532356726,27127.96085246235,0,0,0,0,0,0,0,0,0,0,0,0
running,attitudeInput,1618014596.5601459,156.82371877615077,-76.53150692295274,30.20878150740422,0.7749880775296842,0.08031596512276595,0.626824484174755,-0.005821638282758079,-9.993299181549478,-7.519988497753618,6.961117563100252,14.313399780122365,0.0,0.0,0.0,0,0,0,0.7749880775296842,0.08031596512276595,0.626824484174755,-0.005821638282758079,156.82371877615077,-76.53150692295274,30.20878150740422,31.807917525209774,25.641761571392102,-23.42448600259869,0.0,0.0,0.0,0.0,-23802.125610137944,-21198.64583513251,-78811.23354961746,-81414.71332462292,0,0,0,0,0,0,0,0,0,0,0,0
running,attitudeInput,1618014596.609184,117.34275657173188,-72.74119768548967,54.468481792426786,0.7526535697804003,0.04060704012051666,0.6419819023481148,0.1404382755767334,-7.731477186235228,2.8171576126602704,-5.971105934362558,10.166918047039882,0.0,0.0,0.0,0,0,0,0.7526535697804003,0.04060704012051666,0.6419819023481148,0.1404382755767334,117.34275657173188,-72.74119768548967,54.468481792426786,24.565788896812172,-8.895067092074365,19.34327360362887,0.0,0.0,0.0,0.0,-62337.487863935254,-50069.416758675725,-16912.532735918358,-29180.603841177883,0,0,0,0,0,0,0,0,0,0,0,0
running,attitudeInput,1618014596.662557,91.49005361898031,-85.87873420856344,85.10566393809707,0.7077535426164087,0.004396007057299204,0.7049218805686039,0.046376074990222324,3.8467062659432534,-9.413227307073074,5.621587660478947,11.619304852508279,0.0,0.0,0.0,0,0,0,0.7077535426164087,0.004396007057299204,0.7049218805686039,0.046376074990222324,91.49005361898031,-85.87873420856344,85.10566393809707,-12.2721692785832,31.303238677952514,-19.336573761536883,0.0,0.0,0.0,0.0,42499.816025539,56550.83003689577,-2909.405466453844,-16960.419477810636,0,0,0,0,0,0,0,0,0,0,0,0
running,attitudeInput,1618014596.712196,7.860097172977985,-72.91113596847906,152.6718002638286,0.5890466292723862,-0.08647070187703638,0.7893362683376542,0.14998380494746621,7.408812427019215,-7.401624550085328,-4.9663522588954345,11.590478951217502,0.0,0.0,0.0,0,0,0,0.5890466292723862,-0.08647070187703638,0.7893362683376542,0.14998380494746621,7.860097172977985,-72.91113596847906,152.6718002638286,-23.570455863817955,23.840535931403185,16.176559939459146,0.0,0.0,0.0,0.0,19025.33527107948,66012.5935174409,57013.70913338956,10026.450887028132,0,0,0,0,0,0,0,0,0,0,0,0
running,attitudeInput,1618014596.764075,-14.82884392187063,-77.0300927334263,177.20521396343418,0.6148674019876258,-0.11599981171397923,0.7737119625021361,0.09925684226491305,-4.060718939981396,6.217079448507332,-1.010543397294894,7.494178616525774,0.0,0.0,0.0,0,0,0,0.6148674019876258,-0.11599981171397923,0.7737119625021361,0.09925684226491305,-14.82884392187063,-77.0300927334263,177.20521396343418,12.935350797003206,-21.41329441078945,3.299272717282441,0.0,0.0,0.0,0.0,-24738.86644397066,-46007.98147269865,-16990.9889022122,4278.1261265157955,0,0,0,0,0,0,0,0,0,0,0,0
running,attitudeInput,1618014596.813625,54.33493552391067,-73.96344854049345,116.99027763624399,0.6469057451090657,0.03129826658141259,0.7494712084054543,0.137208903592848,-5.440550124398516,2.287401272366987,9.623057057748117,11.288711944840946,0.0,0.0,0.0,0,0,0,0.6469057451090657,0.03129826658141259,0.7494712084054543,0.137208903592848,54.33493552391067,-73.96344854049345,116.99027763624399,17.440731402052418,-7.967116187341601,-32.482493879429065,0.0,0.0,0.0,0.0,10008.103545983506,-37487.00405266337,-66272.46080700877,-18777.353208361892,0,0,0,0,0,0,0,0,0,0,0,0
running,attitudeInput,1618014596.86501,66.28853971115034,-76.09504930652858,97.97169887755761,0.6719315935506682,-0.013766172380781053,0.7186613908151744,0.17844952069994902,0.8909428112590032,-4.178721536962242,-9.591961996472001,10.500534639634752,0.0,0.0,0.0,0,0,0,0.6719315935506682,-0.013766172380781053,0.7186613908151744,0.17844952069994902,66.28853971115034,-76.09504930652858,97.97169887755761,-2.79673981682318,13.737319068728189,31.21874676472215,0.0,0.0,0.0,0.0,-32145.2300304774,20641.266067927187,41167.60211983576,-11618.893978568824,0,0,0,0,0,0,0,0,0,0,0,0
running,attitudeInput,1618014596.90927,-75.23592879626092,-84.78701600518806,-120.15556981822876,0.6877280720123488,-0.12430995639104701,0.7122979287384599,0.0648752219505561,8.91914073876815,-5.989384773123327,-6.374965876066005,12.49255744031146,0.0,0.0,0.0,0,0,0,0.6877280720123488,-0.12430995639104701,0.7122979287384599,0.0648752219505561,-75.23592879626092,-84.78701600518806,-120.15556981822876,-28.425590404706366,20.2416738693746,20.578684356433094,0.0,0.0,0.0,0.0,21687.860163941907,69618.29269344464,70014.00353758613,22083.57100808338,0,0,0,0,0,0,0,0,0,0,0,0
running,attitudeInput,1618014596.963565,-139.48647037513274,-71.3177149481158,-48.603111310852164,0.7777716404684654,-0.12974348674386724,0.614212834399233,-0.03131288855721567,7.29875804750405,-6.26291571310951,9.898446143309858,13.801275967008447,0.0,0.0,0.0,0,0,0,0.7777716404684654,-0.12974348674386724,0.614212834399233,-0.03131288855721567,-139.48647037513274,-71.3177149481158,-48.603111310852164,-23.394719578130765,20.237830120359664,-33.30156103658901,0.0,0.0,0.0,0.0,76838.07089960681,61498.90435432056,-1365.957372845448,13973.209172440795,0,0,0,0,0,0,0,0,0,0,0,0
running,attitudeInput,1618014597.009227,-116.2654009503291,-70.32787808484147,-61.312478967982585,0.7522899027508112,-0.09244390443915483,0.6408242752334499,-0.12189452417046225,0.5515329034947641,-4.181936727757929,4.225102847386852,5.970282858425096,0.0,0.0,0.0,0,0,0,0.7522899027508112,-0.09244390443915483,0.6408242752334499,-0.12189452417046225,-116.2654009503291,-70.32787808484147,-61.312478967982585,-1.8580188132890183,13.49185286068955,-14.525892328341627,0.0,0.0,0.0,0.0,20053.020725817103,18838.872661192654,-14058.992614341378,-12844.844549716936,0,0,0,0,0,0,0,0,0,0,0,0
running,attitudeInput,1618014597.062665,-76.13924593587305,-64.95203765949145,-90.9578514524988,0.6661366050745814,-0.07449363367095874,0.7056836887767964,-0.22961544659839794,6.87512472132675,-2.9988051456285953,3.6580799656426297,8.345161548483214,0.0,0.0,0.0,0,0,0,0.6661366050745814,-0.07449363367095874,0.7056836887767964,-0.22961544659839794,-76.13924593587305,-64.95203765949145,-90.9578514524988,-21.889524599667663,10.001238783225716,-12.682393839726247,0.0,0.0,0.0,0.0,50199.561518295304,47051.40390473749,20416.744871514034,23564.902485071845,0,0,0,0,0,0,0,0,0,0,0,0
running,attitudeInput,1618014597.111169,-78.49646133214297,-78.29720124508475,-71.03189449903502,0.683391463339561,0.11291837631689618,0.6740063026744825,-0.2567898987102941,-8.81405434601177,8.172903269027515,6.703309206118938,13.762930508150092,0.0,0.0,0.0,0,0,0,0.683391463339561,0.11291837631689618,0.6740063026744825,-0.2567898987102941,-78.49646133214297,-78.29720124508475,-71.03189449903502,28.10382717951084,-27.33994520045305,-22.84271305443865,0.0,0.0,0.0,0.0,-18510.47459038504,-77433.928969002,-72153.37065661131,-13229.916277994358,0,0,0,0,0,0,0,0,0,0,0,0
running,attitudeInput,1618014597.163636,-101.57932994347006,-76.23041780972571,-47.63284254231403,0.7152688884736006,0.11080806293679123,0.638376030929163,-0.261893171932879,-3.7510690146100583,9.906982055412076,9.9963487184297,14.565225707110606,0.0,0.0,0.0,0,0,0,0.7152688884736006,0.11080806293679123,0.638376030929163,-0.261893171932879,-101.57932994347006,-76.23041780972571,-47.63284254231403,11.895844386561034,-33.37113055911137,-33.613288121002945,0.0,0.0,0.0,0.0,20279.850513130856,-58371.88846267664,-58656.224935608785,19995.514040198716,0,0,0,0,0,0,0,0,0,0,0,0
running,attitudeInput,1618014597.2114189,-113.66421254719911,-75.8038010309859,-38.97735223079733,0.7347857612346791,0.0964738210845939,0.628782533906274,-0.23540435846966895,7.103219181314616,0.3311094508653828,-2.767105567267995,7.630349233596965,0.0,0.0,0.0,0,0,0,0.7347857612346791,0.0964738210845939,0.628782533906274,-0.23540435846966895,-113.66421254719911,-75.8038010309859,-38.97735223079733,-22.740553492760437,-1.6795035571588546,8.82261302053868,0.0,0.0,0.0,0.0,26321.544042612815,34708.837566385046,47040.2087723844,38652.915248612175,0,0,0,0,0,0,0,0,0,0,0,0
running,attitudeInput,1618014597.262123,-112.28960007063455,-63.78191570325362,-41.2446882612284,0.7635753582621955,0.027117508300457994,0.5772121345639325,-0.2881726300509526,3.855551391818995,6.2104966667179875,6.051099973031807,9.489539307358296,0.0,0.0,0.0,0,0,0,0.7635753582621955,0.027117508300457994,0.5772121345639325,-0.2881726300509526,-112.28960007063455,-63.78191570325362,-41.2446882612284,-12.449257674714998,-21.1911445610234,-20.389108184433073,0.0,0.0,0.0,0.0,44021.326904223555,-4801.358280243345,-3859.6235158956524,44963.06166857126,0,0,0,0,0,0,0,0,0,0,0,0
running,attitudeInput,1618014597.310405,-115.90778695110367,-59.05437457598112,-52.934225684326776,0.7767795636103276,-0.09461504264476622,0.5797226863341267,-0.22711915421694803,6.054134098256866,-4.860620163687493,-3.734739819931883,8.615477327339836,0.0,0.0,0.0,0,0,0,0.7767795636103276,-0.09461504264476622,0.5797226863341267,-0.22711915421694803,-115.90778695110367,-59.05437457598112,-52.934225684326776,-19.47817758685109,15.639116262196783,12.021406391332363,0.0,0.0,0.0,0.0,17303.321570225893,49781.74342634688,45533.902240887706,13055.48038476671,0,0,0,0,0,0,0,0,0,0,0,0
running,attitudeInput,1618014597.362706,-101.43799868713103,-66.91069557869768,-55.537432626642435,0.7340445263376315,0.007955317359553982,0.6236824882810496,-0.26858052813081884,-1.3569608099772394,-7.6340309814609135,1.831847638062345,7.967147383775059,0.0,0.0,0.0,0,0,0,0.7340445263376315,0.007955317359553982,0.6236824882810496,-0.26858052813081884,-101.43799868713103,-66.91069557869768,-55.537432626642435,4.226540800172976,24.917077927194367,-6.5123735844677295,0.0,0.0,0.0,0.0,829.2184184573196,22439.6470885024,-14464.174205417447,-36074.60287546254,0,0,0,0,0,0,0,0,0,0,0,0
running,attitudeInput,1618014597.409444,161.21415238830014,-76.10711263035384,22.091659593696164,0.7817591314622743,0.05011012378272915,0.6214894593071298,0.009617059839767905,-6.4401160874774295,-2.8485134188838677,-5.217535215402685,8.764234001994367,0.0,0.0,0.0,0,0,0,0.7817591314622743,0.05011012378272915,0.6214894593071298,0.009617059839767905,161.21415238830014,-76.10711263035384,22.091659593696164,20.48532982375863,10.185498173611153,17.080431951601028,0.0,0.0,0.0,0.0,-53098.65959105872,-21083.56023814851,-12987.66954524428,-45002.76889815449,0,0,0,0,0,0,0,0,0,0,0,0
running,attitudeInput,1618014597.463412,-150.13561541605785,-73.25230632068651,-34.79886610464812,0.7859318823843779,-0.08518916255801533,0.611907620621321,-0.024958899414156806,2.225003914011385,1.1533505227446825,-8.678872877002297,9.033476310969522,0.0,0.0,0.0,0,0,0,0.7859318823843779,-0.08518916255801533,0.611907620621321,-0.024958899414156806,-150.13561541605785,-73.25230632068651,-34.79886610464812,-7.189881926050583,-4.491704273914961,28.45700850636544,0.0,0.0,0.0,0.0,-21816.24479498563,6323.326915981305,45011.03382225618,16871.46211128925,0,0,0,0,0,0,0,0,0,0,0,0
running,attitudeInput,1618014597.509075,-173.04635688831624,-82.60315588293305,-22.7710687320087,0.7430084018756046,-0.10879117766994226,0.6548367058150562,0.08539252379882417,1.768465972750724,0.3605465603977162,-7.501172203659877,7.715247899319332,0.0,0.0,0.0,0,0,0,0.7430084018756046,-0.10879117766994226,0.6548367058150562,0.08539252379882417,-173.04635688831624,-82.60315588293305,-22.7710687320087,-5.663266221274756,-1.8925582504747966,24.628622451445356,0.0,0.0,0.0,0.0,-19783.487471257606,6912.735652088097,38053.36541345227,11357.142290106576,0,0,0,0,0,0,0,0,0,0,0,0
running,attitudeInput,1618014597.5628438,140.70236571824145,-84.13018379206756,17.410895046439933,0.7251989354905174,-0.11686565999673484,0.6614763483523904,0.15125462653200086,-2.5230638895665556,-7.669871358816471,-2.5313410181397544,8.461705821035421,0.0,0.0,0.0,0,0,0,0.7251989354905174,-0.11686565999673484,0.6614763483523904,0.15125462653200086,140.70236571824145,-84.13018379206756,17.410895046439933,8.017269523757665,26.157970895569413,8.213086501929906,0.0,0.0,0.0,0.0,-22575.622690324108,17782.17227182215,-3288.3451871668244,-43646.14014931309,0,0,0,0,0,0,0,0,0,0,0,0
running,attitudeInput,1618014597.609656,19.10935575292654,-70.42620900856461,139.31859053036166,0.5803022620878723,-0.07049509453161598,0.7887085582159199,0.19031168240452728,-3.777229362288923,-8.002823274146447,-1.7513515934301103,9.021079448512126,0.0,0.0,0.0,0,0,0,0.5803022620878723,-0.07049509453161598,0.7887085582159199,0.19031168240452728,19.10935575292654,-70.42620900856461,139.31859053036166,12.15168535652348,25.919187242699348,5.397831226395685,0.0,0.0,0.0,0.0,-25938.88618109691,10832.918526122812,-13262.839392324162,-50034.6440995439,0,0,0,0,0,0,0,0,0,0,0,0
running,attitudeInput,1618014597.662803,56.89738165003068,-77.66951248654777,104.39202488575792,0.663084869310145,-0.044769001893243385,0.7242480477035598,0.18379052739195514,-7.780265791431243,4.202804078080516,9.02423824082524,12.634594323966956,0.0,0.0,0.0,0,0,0,0.663084869310145,-0.044769001893243385,0.7242480477035598,0.18379052739195514,56.89738165003068,-77.66951248654777,104.39202488575792,24.871824606097125,-14.165223823466286,-30.568572409823133,0.0,0.0,0.0,0.0,-4225.656191484473,-56751.16785621652,-76011.64539360428,-23486.13372887224,0,0,0,0,0,0,0,0,0,0,0,0
running,attitudeInput,1618014597.709404,80.39090087101471,-67.3745470421124,88.39651176744432,0.6803692589388027,0.07063379275090624,0.6997344914410946,0.20610720584287986,-9.433542524044098,5.110719588500687,5.676677533807811,12.13819785174353,0.0,0.0,0.0,0,0,0,0.6803692589388027,0.07063379275090624,0.6997344914410946,0.20610720584287986,80.39090087101471,-67.3745470421124,88.39651176744432,30.10841652975008,-16.966113897760096,-19.39709289207176,0.0,0.0,0.0,0.0,-25789.686223590747,-68486.62239340815,-71341.0283744372,-28644.092204619792,0,0,0,0,0,0,0,0,0,0,0,0
running,attitudeInput,1618014597.763131,2.862909565899346,-59.30448452032832,153.4492107039458,0.48634890705144884,-0.09244184710842047,0.8483952771518053,0.18746919538835158,-6.9081819243596225,-9.011656679640383,-6.517857790223183,13.092570556820736,0.0,0.0,0.0,0,0,0,0.48634890705144884,-0.09244184710842047,0.8483952771518053,0.18746919538835158,2.862909565899346,-59.30448452032832,153.4492107039458,22.126149430847374,29.11258600302105,21.337175350816302,0.0,0.0,0.0,0.0,-60743.50918228123,-1506.4277896234926,-10636.156480222277,-69873.23787288002,0,0,0,0,0,0,0,0,0,0,0,0
running,attitudeInput,1618014597.8095272,-13.220923494094745,-56.43088280729712,161.56964011931044,0.4473389259889089,-0.17534073344743703,0.855304796439017,0.19390001979787375,4.305431727199904,0.3492253184619834,-1.0957537689025076,4.456386092193816,0.0,0.0,0.0,0,0,0,0.4473389259889089,-0.17534073344743703,0.855304796439017,0.19390001979787375,-13.220923494094745,-56.43088280729712,161.56964011931044,-13.713972192124437,-2.0001115381520163,3.376053730290218,0.0,0.0,0.0,0.0,18156.762962437584,19772.366236665617,26084.94990487099,24469.34663064296,0,0,0,0,0,0,0,0,0,0,0,0
running,attitudeInput,1618014597.862475,-38.03195816935942,-55.888637200704764,-176.10930354304946,0.45255575551142846,-0.2726355356909587,0.8398959622331728,0.12424944851546402,3.241766027552731,-1.7372502859588774,-3.8873256458723686,5.351484486618292,0.0,0.0,0.0,0,0,0,0.45255575551142846,-0.2726355356909587,0.8398959622331728,0.12424944851546402,-38.03195816935942,-55.888637200704764,-176.10930354304946,-10.201319269579553,6.603702839532675,12.983859696141524,0.0,0.0,0.0,0.0,1209.5077151379091,24208.82436346631,31700.274488712825,8700.957840384428,0,0,0,0,0,0,0,0,0,0,0,0
running,attitudeInput,1618014597.912339,-16.716508714337408,-59.77980848080276,177.52806125407167,0.490208802023471,-0.1366324140601671,0.8560138138167207,0.09092449835856867,-4.782943212344626,2.842442557479072,4.122769867773424,6.924829012163563,0.0,0.0,0.0,0,0,0,0.490208802023471,-0.1366324140601671,0.8560138138167207,0.09092449835856867,-16.716508714337408,-59.77980848080276,177.52806125407167,15.210242008685258,-10.292561891938481,-13.765842267642757,0.0,0.0,0.0,0.0,-8370.79219128302,-36619.67993889906,-40697.934955252385,-12449.047207636338,0,0,0,0,0,0,0,0,0,0,0,0
running,attitudeInput,1618014597.962074,-54.639747192890184,-62.08656899141319,-142.91780842076022,0.5594237889294937,-0.22712540457923425,0.7969612211184194,-0.017660322984769813,-1.9756045141000753,0.508862084326718,2.2763915241066206,3.056781344490049,0.0,0.0,0.0,0,0,0,0.5594237889294937,-0.22712540457923425,0.7969612211184194,-0.017660322984769813,-54.639747192890184,-62.08656899141319,-142.91780842076022,6.471840883172768,-1.0427478900675229,-7.829963645343554,0.0,0.0,0.0,0.0,-1245.399126815448,-11663.556146635347,-19632.966533038172,-9214.809513218275,0,0,0,0,0,0,0,0,0,0,0,0
running,attitudeInput,1618014598.012512,-50.07539828679416,-67.60524053878913,-149.5570848908545,0.578703735178438,-0.20699672567027688,0.7882784045748064,0.029521167546464673,-6.488206045801145,7.798816484256127,4.881474720867812,11.25820375096965,0.0,0.0,0.0,0,0,0,0.578703735178438,-0.20699672567027688,0.7882784045748064,0.029521167546464673,-50.07539828679416,-67.60524053878913,-149.5570848908545,20.830121251947585,-25.19795373873699,-16.447644822253846,0.0,0.0,0.0,0.0,-14286.829380443924,-63186.24228947486,-52911.807929694005,-4012.3950206630616,0,0,0,0,0,0,0,0,0,0,0,0
running,attitudeInput,1618014598.062042,-46.385735927063365,-71.40014317934744,-174.5655329764242,0.5509415155067888,-0.29403269904855206,0.7565093615367502,0.19416952461332657,0.42216948169079005,6.343249138523557,-9.793215975506822,11.675706224788843,0.0,0.0,0.0,0,0,0,0.5509415155067888,-0.29403269904855206,0.7565093615367502,0.19416952461332657,-46.385735927063365,-71.40014317934744,-174.5655329764242,-1.2567204706239135,-20.27960000892808,32.520106900460114,0.0,0.0,0.0,0.0,-36157.33640487157,-21784.782728442355,40211.55683327095,25839.00315684175,0,0,0,0,0,0,0,0,0,0,0,0
running,attitudeInput,1618014598.11318,-68.53038725586308,-60.598226980455884,-149.63477560403635,0.5297099802695175,-0.3599515537355624,0.7630383061815729,0.08726258686160054,7.827405275554638,-1.3550723933550877,1.9155615683420972,8.171528049338319,0.0,0.0,0.0,0,0,0,0.5297099802695175,-0.3599515537355624,0.7630383061815729,0.08726258686160054,-68.53038725586308,-60.598226980455884,-149.63477560403635,-24.788856643918812,5.153266321460315,-6.536447257007741,0.0,0.0,0.0,0.0,47659.78527039099,46035.68241120942,32309.85901537887,33933.96187456044,0,0,0,0,0,0,0,0,0,0,0,0
running,attitudeInput,1618014598.1631129,-31.195199322495508,-54.32437048035125,-170.62498871569915,0.45777848325988285,-0.202493967840167,0.8641176303643584,0.05230462834312571,-8.960695221347592,-8.303144905218623,1.6124841173991933,12.32219051937618,0.0,0.0,0.0,0,0,0,0.45777848325988285,-0.202493967840167,0.8641176303643584,0.05230462834312571,-31.195199322495508,-54.32437048035125,-170.62498871569915,28.721750614203806,28.407357126064046,-5.3492446268854525,0.0,0.0,0.0,0.0,-40047.66900466311,-12973.303334328644,-52609.61700396514,-79683.98267429962,0,0,0,0,0,0,0,0,0,0,0,0
running,attitudeInput,1618014598.2093282,-37.79328234957821,-35.34099106261941,-155.69114525187334,0.3457162404159632,-0.24119864081764467,0.9019556639021541,-0.09369886410836281,1.0065686406123375,-7.314196662275847,6.154234308747935,9.611724776005683,0.0,0.0,0.0,0,0,0,0.3457162404159632,-0.24119864081764467,0.9019556639021541,-0.09369886410836281,-37.79328234957821,-35.34099106261941,-155.69114525187334,-2.923620404831705,25.104675318523782,-20.48539309031237,0.0,0.0,0.0,0.0,28769.377445801278,34193.2444767878,-19337.68452186136,-24761.551552847894,0,0,0,0,0,0,0,0,0,0,0,0
running,attitudeInput,1618014598.262505,-53.83311198610545,-23.35399966155544,-137.20117575803056,0.3297808426771386,-0.34691368029861835,0.8464432376951142,-0.23330096353216578,9.934515040288385,0.8575980658364333,-3.9690448867329176,10.732352064722031,0.0,0.0,0.0,0,0,0,0.3297808426771386,-0.34691368029861835,0.8464432376951142,-0.23330096353216578,-53.83311198610545,-23.35399966155544,-137.20117575803056,-31.301093491573745,-2.183574044176223,13.08535568595673,0.0,0.0,0.0,0.0,35124.60640036509,47925.25617767099,65853.72221854869,53053.072441242795,0,0,0,0,0,0,0,0,0,0,0,0
running,attitudeInput,1618014598.311168,-69.37671155219364,-26.267875389056183,-121.51479513918684,0.4337732746253509,-0.39232111738974723,0.7618754167473561,-0.2783356542502285,2.097997696308404,5.561953370205142,8.780354685419232,10.603374369879392,0.0,0.0,0.0,0,0,0,0.4337732746253509,-0.39232111738974723,0.7618754167473561,-0.2783356542502285,-69.37671155219364,-26.267875389056183,-121.51479513918684,-6.397003196915289,-18.014599038828884,-29.304349331982888,0.0,0.0,0.0,0.0,44727.038078843,-10833.906528946309,-24090.101188179848,31470.843419609453,0,0,0,0,0,0,0,0,0,0,0,0
running,attitudeInput,1618014598.3611789,-61.753262419765804,-29.726712801801554,-113.78365640538766,0.45535174606961865,-0.29523053090419765,0.7667757540832726,-0.3428537062996463,1.248691682326586,-1.1780477225380919,7.118965606705821,7.3230252398547115,0.0,0.0,0.0,0,0,0,0.45535174606961865,-0.29523053090419765,0.7667757540832726,-0.3428537062996463,-61.753262419765804,-29.726712801801554,-113.78365640538766,-3.7029189593982395,4.324549772838657,-23.874519268137583,0.0,0.0,0.0,0.0,34005.84134801532,11050.665681383314,-22060.10636492344,895.0693017085568,0,0,0,0,0,0,0,0,0,0,0,0
running,attitudeInput,1618014598.409591,-59.572587068066106,-42.06881327442398,-125.00085113748423,0.4904057340114112,-0.26744036908320773,0.8008587380820953,-0.21587761966197588,-5.096498105934522,8.173555347931686,3.1802808054560208,10.143741221612903,0.0,0.0,0.0,0,0,0,0.4904057340114112,-0.26744036908320773,0.8008587380820953,-0.21587761966197588,-59.572587068066106,-42.06881327442398,-125.00085113748423,16.516927751848694,-26.61176118496969,-10.836887235620829,0.0,0.0,0.0,0.0,-13917.61648259535,-57889.056089153775,-39366.52065945114,4604.918947107286,0,0,0,0,0,0,0,0,0,0,0,0
running,attitudeInput,1618014598.4595,-48.32857153251022,-23.36265166923807,-130.85886585419317,0.33468969813757704,-0.2877648042347823,0.8470375746524432,-0.2961445095408689,9.78591830257885,-6.5118621350726515,-2.1752090405477293,11.954082142139614,0.0,0.0,0.0,0,0,0,0.33468969813757704,-0.2877648042347823,0.8470375746524432,-0.2961445095408689,-48.32857153251022,-23.36265166923807,-130.85886585419317,-30.82786882611153,22.257511536693855,7.062729936343549,0.0,0.0,0.0,0.0,41432.93183554152,75860.1616971271,58018.758878773726,23591.529017188135,0,0,0,0,0,0,0,0,0,0,0,0
running,attitudeInput,1618014598.512425,-31.384458625188397,-26.53580316644629,-128.942996571682,0.3128297346578594,-0.14232868052412948,0.8723009655856877,-0.347809041360961,-5.177676953815849,-5.601984072425823,2.550017791106099,8.043205512775737,0.0,0.0,0.0,0,0,0,0.3128297346578594,-0.14232868052412948,0.8723009655856877,-0.347809041360961,-31.384458625188397,-26.53580316644629,-128.942996571682,16.88331579886782,19.28835902092098,-8.737503388741592,0.0,0.0,0.0,0.0,-16973.659979305867,-4585.060369051182,-37492.45671958578,-49881.056329840474,0,0,0,0,0,0,0,0,0,0,0,0
running,attitudeInput,1618014598.564033,-33.46913272425843,-25.545103952659566,-126.89819903093178,0.31491150929080974,-0.15656161569471608,0.8639100210088928,-0.3605255572184288,8.623787772772348,-7.3126012169642856,9.188793308511233,14.569755474087621,0.0,0.0,0.0,0,0,0,0.31491150929080974,-0.15656161569471608,0.8639100210088928,-0.3605255572184288,-33.46913272425843,-25.545103952659566,-126.89819903093178,-27.12985247436662,24.94405403889028,-30.767765254953634,0.0,0.0,0.0,0.0,79887.76862953164,73049.68563259316,7634.003070767744,14472.086067706212,0,0,0,0,0,0,0,0,0,0,0,0
running,attitudeInput,1618014598.6108391,-0.9071450247995905,-34.064153842491905,-157.5005255643654,0.28874679249111174,0.04971660032676399,0.9381927646425736,-0.18424952062452815,-9.590253102463626,0.9087188614677055,-5.8039994128177135,11.24656097313702,0.0,0.0,0.0,0,0,0,0.28874679249111174,0.04971660032676399,0.9381927646425736,-0.18424952062452815,-0.9071450247995905,-34.064153842491905,-157.5005255643654,30.720654666703386,-2.1074547355737487,19.029609502613464,0.0,0.0,0.0,0.0,-71897.08677412366,-52027.437594940064,-27208.727633211118,-47078.376812394716,0,0,0,0,0,0,0,0,0,0,0,0
running,attitudeInput,1618014598.659436,-17.571704279561374,-34.49464637599883,-141.53964159955726,0.32471389866722156,-0.041224730011098894,0.906080890134504,-0.26810226813831733,1.846988974146127,6.768653396941168,6.2477208442673735,9.394682156754085,0.0,0.0,0.0,0,0,0,0.32471389866722156,-0.041224730011098894,0.906080890134504,-0.26810226813831733,-17.571704279561374,-34.49464637599883,-141.53964159955726,-5.618025610432758,-21.661103445738306,-21.02582543004655,0.0,0.0,0.0,0.0,33750.06076315593,-16372.060974593838,-15626.13047834113,34495.99125940865,0,0,0,0,0,0,0,0,0,0,0,0
running,attitudeInput,1618014598.709192,-28.5598466506563,-33.83552822787155,-135.54066550128508,0.3503251775048221,-0.11175609035378625,0.885406154251165,-0.28432162824733087,5.42487843397402,0.17114110028590146,2.1455234111007,5.836254450174758,0.0,0.0,0.0,0,0,0,0.3503251775048221,-0.11175609035378625,0.885406154251165,-0.28432162824733087,-28.5598466506563,-33.83552822787155,-135.54066550128508,-16.98472840673252,0.16962506025462076,-7.398741290584884,0.0,0.0,0.0,0.0,36084.08971189953,27595.808795571975,18709.187303158695,27197.468219486247,0,0,0,0,0,0,0,0,0,0,0,0
running,attitudeInput,1618014598.761187,-7.584484397344701,-41.91227333685556,-164.68688914301435,0.3619174683779323,-0.013665875390657086,0.9266538608940972,-0.10070557096198136,-6.8378972281898,-6.543322524185263,-8.74873222553073,12.888453115592881,0.0,0.0,0.0,0,0,0,0.3619174683779323,-0.013665875390657086,0.9266538608940972,-0.10070557096198136,-7.584484397344701,-41.91227333685556,-164.68688914301435,21.922141565071357,22.625546424549665,28.904333791743184,0.0,0.0,0.0,0.0,-69299.6444218952,-8794.309478536474,-1421.8853414034008,-61927.22028476212,0,0,0,0,0,0,0,0,0,0,0,0
running,attitudeInput,1618014598.810015,-7.552271813261026,-40.86170103096489,-150.35872524594376,0.35251714681025853,0.029435616831193015,0.9098321171746326,-0.21695788583051684,4.944803304045675,3.4635080776774907,4.164300422098438,7.334055216953816,0.0,0.0,0.0,0,0,0,0.35251714681025853,0.029435616831193015,0.9098321171746326,-0.21695788583051684,-7.552271813261026,-40.86170103096489,-150.35872524594376,-15.59410838727345,-10.644915652121753,-14.100612034271473,0.0,0.0,0.0,0.0,41710.19739786472,12654.503211679154,8596.89496211812,37652.58914830368,0,0,0,0,0,0,0,0,0,0,0,0
running,attitudeInput,1618014598.8601549,-16.72348863689874,-32.91991735953092,-147.93131592367098,0.3079486437720723,-0.0566053595305552,0.9232918727313885,-0.22247602976393582,9.01016879902697,4.636489850488817,-5.183217174125585,11.381824115439288,0.0,0.0,0.0,0,0,0,0.3079486437720723,-0.0566053595305552,0.9232918727313885,-0.22247602976393582,-16.72348863689874,-32.91991735953092,-147.93131592367098,-28.484498277936073,-14.538459988187372,16.970401365595045,0.0,0.0,0.0,0.0,26019.651840497747,28875.187832140517,65872.25054395464,63016.71455231188,0,0,0,0,0,0,0,0,0,0,0,0
running,attitudeInput,1618014598.9092648,-10.200513754161893,-44.86080088362765,-146.14939964364225,0.3875109149895141,0.03202827459790453,0.8906796512776323,-0.23558276505344433,-5.599436809198802,1.059610588859941,2.911338397929014,6.399402975863486,0.0,0.0,0.0,0,0,0,0.3875109149895141,0.03202827459790453,0.8906796512776323,-0.23558276505344433,-10.200513754161893,-44.86080088362765,-146.14939964364225,18.04858469797811,-2.7074494136219,-9.978303349631496,0.0,0.0,0.0,0.0,-17396.33532524252,-32291.687628169035,-40828.976107706425,-25933.623804779912,0,0,0,0,0,0,0,0,0,0,0,0
running,attitudeInput,1618014598.963645,-12.096518233645922,-42.29920384996399,-159.70609254715015,0.37049640531150535,-0.03352146294027297,0.9196413692468872,-0.12597014385681626,3.675919753236487,0.164235393025651,-3.9945084293612925,5.430972002210553,0.0,0.0,0.0,0,0,0,0.37049640531150535,-0.03352146294027297,0.9196413692468872,-0.12597014385681626,-12.096518233645922,-42.29920384996399,-159.70609254715015,-11.571475816153333,0.34105465677241453,13.093301681544498,0.0,0.0,0.0,0.0,3291.087585349689,19065.434946267676,34038.86345562262,18264.51609470463,0,0,0,0,0,0,0,0,0,0,0,0
running,attitudeInput,1618014599.009961,-18.841038955218277,-47.66188822715074,-150.47273194270318,0.4235855575944209,-0.04320754391208334,0.8894651929451066,-0.1660122106522084,0.4682940945104172,4.51543062689515,7.552130914095681,8.811531901371959,0.0,0.0,0.0,0,0,0,0.4235855575944209,-0.04320754391208334,0.8894651929451066,-0.1660122106522084,-18.841038955218277,-47.66188822715074,-150.47273194270318,-1.3027893520101583,-14.171192935320125,-25.307842965670883,0.0,0.0,0.0,0.0,31817.37338116538,-14538.105816612413,-27614.533268122115,18740.94592965568,0,0,0,0,0,0,0,0,0,0,0,0
running,attitudeInput,1618014599.060035,-21.410381714217568,-60.88078566402816,-133.56781360577384,0.5206439389320177,0.04906005905408293,0.8156520831349482,-0.24745641785288797,-2.7483786078143653,7.346918409450145,3.3582971932193617,8.532816365362267,0.0,0.0,0.0,0,0,0,0.5206439389320177,0.04906005905408293,0.8156520831349482,-0.24745641785288797,-21.410381714217568,-60.88078566402816,-133.56781360577384,8.930838974114495,-23.74706809965433,-11.577096797605018,0.0,0.0,0.0,0.0,-811.9950028672698,-42288.90936269018,-27999.177137604653,13477.737222218266,0,0,0,0,0,0,0,0,0,0,0,0
running,attitudeInput,1618014599.10943,-35.99632973374501,-58.04745976141519,-129.6315758348055,0.532540260217462,-0.04814861415528564,0.8163710742924162,-0.21822202285995215,-0.5027411605381602,5.4698941830640475,0.7557509658425319,5.544695714896272,0.0,0.0,0.0,0,0,0,0.532540260217462,-0.04814861415528564,0.8163710742924162,-0.21822202285995215,-35.99632973374501,-58.04745976141519,-129.6315758348055,1.797793330338206,-17.563386860695363,-2.9174717505985965,0.0,0.0,0.0,0.0,525.7664698626799,-23522.440221137927,-6325.505247316348,17722.70144368427,0,0,0,0,0,0,0,0,0,0,0,0
running,attitudeInput,1618014599.162009,-45.15124396139599,-57.201599929753684,-103.9512334387302,0.5558290425035523,0.00676817030827445,0.7518332202409629,-0.35461962202106945,5.068259868292244,5.3933715267031666,5.742585018903376,9.367656975835935,0.0,0.0,0.0,0,0,0,0.5558290425035523,0.00676817030827445,0.7518332202409629,-0.35461962202106945,-45.15124396139599,-57.201599929753684,-103.9512334387302,-15.994837093441603,-17.596141422414377,-19.576288019990255,0.0,0.0,0.0,0.0,48786.006332568635,5138.897419632998,2813.8496488951378,46460.958561830776,0,0,0,0,0,0,0,0,0,0,0,0
running,attitudeInput,1618014599.209036,-60.750762528547845,-55.57624164534494,-87.6449777557753,0.6012564924039466,-0.019567725967542644,0.6985717255285128,-0.3874342250430107,6.404531378714975,-2.6807847746518925,9.109683222550558,11.453862126120136,0.0,0.0,0.0,0,0,0,0.6012564924039466,-0.019567725967542644,0.6985717255285128,-0.3874342250430107,-60.750762528547845,-55.57624164534494,-87.6449777557753,-20.333101102829698,8.971944262295896,-30.72713022099448,0.0,0.0,0.0,0.0,68876.78715796961,43332.29127206767,-3281.5527436876214,22262.94314221431,0,0,0,0,0,0,0,0,0,0,0,0
running,attitudeInput,1618014599.259459,-48.5326648147764,-49.94902491377581,-96.7950153131037,0.5351821395259122,-0.023017258315388995,0.7331691803964447,-0.41894299883028874,1.8525869954837473,2.0290812126713282,4.586315333630892,5.346357403218483,0.0,0.0,0.0,0,0,0,0.5351821395259122,-0.023017258315388995,0.7331691803964447,-0.41894299883028874,-48.5326648147764,-49.94902491377581,-96.7950153131037,-5.728262075300843,-6.495525853195078,-15.700106265984624,0.0,0.0,0.0,0.0,27674.52306292353,1612.8642736232541,-9194.96641706056,16866.692372239715,0,0,0,0,0,0,0,0,0,0,0,0
running,attitudeInput,1618014599.313333,-35.8312081380806,-44.24678608036006,-89.35426839636627,0.4545884660336126,0.05444558284008119,0.7021389683608832,-0.5453309767173744,1.1581205457220327,4.422435182683512,-4.184015027407447,6.197189515662062,0.0,0.0,0.0,0,0,0,0.4545884660336126,0.05444558284008119,0.7021389683608832,-0.5453309767173744,-35.8312081380806,-44.24678608036006,-89.35426839636627,-3.4728536189905617,-14.46244134037691,13.396135767033494,0.0,0.0,0.0,0.0,-10127.701126520056,-11379.735394721481,21331.237963922133,22583.272232123563,0,0,0,0,0,0,0,0,0,0,0,0
running,attitudeInput,1618014599.3591769,-48.83472604918243,-59.02171004415947,-82.05963136255187,0.5658221041539676,0.10219903905156613,0.6737978162228837,-0.46410904507560097,-4.967502733256235,2.5226413021450176,0.15308954115830914,5.573440495045061,0.0,0.0,0.0,0,0,0,0.5658221041539676,0.10219903905156613,0.6737978162228837,-0.46410904507560097,-48.83472604918243,-59.02171004415947,-82.05963136255187,15.947763642843503,-8.34242404809722,-1.0408254828442844,0.0,0.0,0.0,0.0,-24501.881696873905,-35519.50202402578,-26946.113827542227,-15928.493500390352,0,0,0,0,0,0,0,0,0,0,0,0
running,attitudeInput,1618014599.4112,-52.93009574582282,-51.26917873049588,-63.91571028273491,0.545883686740375,0.1159302036581952,0.5907711301061482,-0.5827183369893297,1.320487337885143,3.541744332102148,3.4062635440023694,5.08824832871709,0.0,0.0,0.0,0,0,0,0.545883686740375,0.1159302036581952,0.5907711301061482,-0.5827183369893297,-52.93009574582282,-51.26917873049588,-63.91571028273491,-4.167094703012186,-11.90695202071001,-11.71737688958945,0.0,0.0,0.0,0.0,20479.8954800596,-7259.309958221061,-7036.714703637997,20702.490734642666,0,0,0,0,0,0,0,0,0,0,0,0
running,attitudeInput,1618014599.459522,-41.667451832874505,-64.54646905074196,-58.51817317085895,0.506260107564845,0.2884004947654397,0.5519092677200299,-0.5965920032251705,-9.26500303222827,-9.41119797788935,3.7697526913370387,13.733971163508043,0.0,0.0,0.0,0,0,0,0.506260107564845,0.2884004947654397,0.5519092677200299,-0.5965920032251705,-41.667451832874505,-64.54646905074196,-58.51817317085895,29.596679688520243,30.99172120233326,-12.996365746281866,0.0,0.0,0.0,0.0,-32479.849855454366,-11350.07030380459,-62999.98532732176,-84129.76487897156,0,0,0,0,0,0,0,0,0,0,0,0
running,attitudeInput,1618014599.50982,-61.24690707233461,-58.89586198210402,-43.3980182931666,0.5685693999877586,0.22908159225047126,0.5097479803441107,-0.6036617082643633,3.7268344571407983,0.26861566006812776,-0.10947426422692336,3.7381056777857165,0.0,0.0,0.0,0,0,0,0.5685693999877586,0.22908159225047126,0.5097479803441107,-0.6036617082643633,-61.24690707233461,-58.89586198210402,-43.3980182931666,-11.945135197585378,-1.2953035871155676,0.061510005941761925,0.0,0.0,0.0,0.0,19195.47028245497,17746.77500960464,19339.917872717273,20788.613145567604,0,0,0,0,0,0,0,0,0,0,0,0
running,attitudeInput,1618014599.562815,-69.48180393369235,-51.67268902009448,-39.652519688017186,0.6039632349509984,0.16292664692248868,0.4844771597217983,-0.611526941563509,1.4783010344245922,-2.434626583719017,-6.191581928273582,6.815311241979794,0.0,0.0,0.0,0,0,0,0.6039632349509984,0.16292664692248868,0.4844771597217983,-0.611526941563509,-69.48180393369235,-51.67268902009448,-39.652519688017186,-4.830609886978773,7.647576990556092,20.34088347380231,0.0,0.0,0.0,0.0,-16091.99974824798,16771.48000052735,31675.701727491254,-1187.7780212840798,0,0,0,0,0,0,0,0,0,0,0,0
running,attitudeInput,1618014599.612716,-84.73064272923499,-43.266060208630144,-20.17610058164381,0.6644196929202365,0.15845885732380993,0.36488762607113545,-0.6326881400307598,-1.897971311237394,8.851095351644506,8.448833660696526,12.382526973453434,0.0,0.0,0.0,0,0,0,0.6644196929202365,0.15845885732380993,0.36488762607113545,-0.6326881400307598,-84.73064272923499,-43.266060208630144,-20.17610058164381,5.800485851710353,-29.960108790000614,-27.98611682562802,0.0,0.0,0.0,0.0,23504.45146680655,-44534.82545098628,-42217.0043250971,25822.272592695732,0,0,0,0,0,0,0,0,0,0,0,0
running,attitudeInput,1618014599.6633532,-72.68271090789786,-51.83915355223021,-30.24332830102798,0.6063796439175723,0.20086074186212366,0.43905271784022026,-0.6318159548302904,0.8481653554545596,-4.038020409793228,-3.4279296017071026,5.364298151143339,0.0,0.0,0.0,0,0,0,0.6063796439175723,0.20086074186212366,0.43905271784022026,-0.6318159548302904,-72.68271090789786,-51.83915355223021,-30.24332830102798,-2.8612677557505113,12.8935977050546,11.261296734654518,0.0,0.0,0.0,0.0,-8607.514428875644,19754.670238768365,17838.055712829697,-10524.128954814312,0,0,0,0,0,0,0,0,0,0,0,0
