State,Routine,Timestamp,Yaw,Pitch,Roll,q1,q2,q3,q4,Vel_Yaw,Vel_Pitch,Vel_Roll,Vel_Mag,Accel_Yaw,Accel_Pitch,Accel_Roll,Target_Yaw,Target_Pitch,Target_Roll,q1_Error,q2_Error,q3_Error,q4_Error,Yaw_Error,Pitch_Error,Roll_Error,Req_InertTorque_Yaw,Req_InertTorque_Pitch,Req_InertTorque_Roll,Req_Torque_M1,Req_Torque_M2,Req_Torque_M3,Req_Torque_M4,Accel_M1,Accel_M2,Accel_M3,Accel_M4,Duty_M1,Duty_M2,Duty_M3,Duty_M4,RPM_M1,RPM_M2,RPM_M3,RPM_M4,TargetRPM_M1,TargetRPM_M2,TargetRPM_M3,TargetRPM_M4
running,attitudeInput,1619556059.1430748,1.207637736097236,1.4918144377133888,-1.9347901130941207,-0.01701823006492929,0.012837681026087394,0.010755816362331916,0.9997149024625518,0.0014315767180919647,-0.0009960668369233608,-0.0010903899991512294,0.11784714534884948,-9.795160293579102,0.3347126841545105,-0.28624510765075684,0,0,0,-0.01701823006492929,0.012837681026087394,0.010755816362331916,0.9997149024625518,1.207637736097236,1.4918144377133888,-1.9347901130941207,-0.00018639408240825588,-0.0012770409293214181,-0.0009672783841115684,0.0007498693645224171,-0.0008371040411539842,-0.0006180688448784952,0.0009689045607979061,0,0,0,0,0.03964404799013154,-0.14012532186675739,-0.05434535113700238,0.07171320071988654,0,0,0,0,0,0,0,0
running,attitudeInput,1619556059.1960466,1.2046380827152967,1.48551454719329,-1.929395182366745,-0.01697026196925305,0.012783670065824952,0.010728124506337306,0.9997167075391505,0.0006128519740700722,-0.0022006853225678205,-0.001856500605642795,0.16865991458608162,-9.775113105773926,0.3127117156982422,-0.2603015601634979,0,0,0,-0.01697026196925305,0.012783670065824952,0.010728124506337306,0.9997167075391505,1.2046380827152967,1.48551454719329,-1.929395182366745,0.00014000715707663072,-0.0007881444724453686,-0.0006572208683291518,0.00041522532764108643,-0.0006068023061125819,-0.0005142253378246222,0.0005078022959290461,0,0,0,0,0.038546186940225616,-0.1405541883090253,-0.05388950187754923,0.06999218237170168,0,0,0,0,0,0,0,0
running,attitudeInput,1619556059.2430391,1.2033155192333023,1.4850713386220482,-1.9259312287890624,-0.016939854517102188,0.012780323221619578,0.010716135320978627,0.9997173946226368,0.000976756491214037,-0.0008525558489412069,-0.00013478691369295075,0.0746841690613483,-9.757049560546875,0.3472428321838379,-0.272026389837265,0,0,0,-0.016939854517102188,0.012780323221619578,0.010716135320978627,0.9997173946226368,1.2033155192333023,1.4850713386220482,-1.9259312287890624,-6.2447609755639515e-06,-0.0013269594595458497,-0.0013443419789653244,0.0009528011859764792,-0.0009360941757881511,-0.0009483854731437689,0.0009405098886208615,0,0,0,0,0.04034575036064663,-0.1412869560830357,-0.05546398065460542,0.07127451378907694,0,0,0,0,0,0,0,0
running,attitudeInput,1619556059.2933578,1.2020035329305712,1.4874490148762147,-1.924430543558951,-0.016926829015125096,0.012801400731114205,0.010704867511796992,0.9997174662925365,0.0011319376495480538,-0.0010494680584445595,-0.0006981392824649806,0.09706629685347934,-9.77613639831543,0.34407365322113037,-0.23048976063728333,0,0,0,-0.016926829015125096,0.012801400731114205,0.010704867511796992,0.9997174662925365,1.2020035329305712,1.4874490148762147,-1.924430543558951,-6.861284410280514e-05,-0.0012509454374870657,-0.0011175307915135295,0.000814471904534781,-0.0008602936980706819,-0.0007659552971931923,0.0009088103054122708,0,0,0,0,0.03940762777924791,-0.14016133339042405,-0.05404308519424084,0.0705934899754311,0,0,0,0,0,0,0,0
running,attitudeInput,1619556059.3429399,1.203396327959039,1.489859912746759,-1.9231186178384718,-0.016915755434823234,0.012822350892832998,0.010717222098326026,0.999717252870103,0.00034148320227861406,0.0010206162721812725,0.0007698206728696828,0.07581451114935803,-9.798008918762207,0.32006630301475525,-0.23211562633514404,0,0,0,-0.016915755434823234,0.012822350892832998,0.010717222098326026,0.999717252870103,1.203396327959039,1.489859912746759,-1.9231186178384718,0.00024731761477681446,-0.0020817134111043543,-0.0017063268178612453,0.0011191152825723659,-0.0015594336507366519,-0.0012939952450879337,0.0013845536882210838,0,0,0,0,0.040537517362098555,-0.1433169525404812,-0.056224207651694794,0.07277422425088498,0,0,0,0,0,0,0,0
running,attitudeInput,1619556059.3929563,1.2036018103111716,1.4863964093263964,-1.9207315975333337,-0.016894642824557327,0.012792327464089419,0.010718245265555076,0.9997179835435139,0.0011398445782065392,-0.0014285052868574857,-0.0005913836383819576,0.11005574650930595,-9.789840698242188,0.3159874677658081,-0.26568320393562317,0,0,0,-0.016894642824557327,0.012792327464089419,0.010718245265555076,0.9997179835435139,1.2036018103111716,1.4863964093263964,-1.9207315975333337,-7.250609605211533e-05,-0.0010981463785548092,-0.0011619785976917552,0.0008472777221193824,-0.0007508719749136479,-0.0007960081699235686,0.0008021415271094617,0,0,0,0,0.03982588304518137,-0.14029383165011355,-0.054240310673932084,0.06989723302136282,0,0,0,0,0,0,0,0
running,attitudeInput,1619556059.4429657,1.204457203456951,1.4866340065908272,-1.9211129227234818,-0.01689808640372957,0.012794238509870258,0.010725784913515344,0.9997178200246477,0.0005922492560744286,2.343324264138938e-05,0.0003654106086492543,0.039895031571345684,-9.77557373046875,0.34642234444618225,-0.2445143759250641,0,0,0,-0.01689808640372957,0.012794238509870258,0.010725784913515344,0.9997178200246477,1.204457203456951,1.4866340065908272,-1.9211129227234818,0.0001466101864232191,-0.0016791712042012906,-0.001545680080610673,0.0010411263380393353,-0.0012391878737693543,-0.0011447953950502177,0.0011355188167584721,0,0,0,0,0.04083461730455403,-0.14336496260386852,-0.05602492889792295,0.0719825230104996,0,0,0,0,0,0,0,0
running,attitudeInput,1619556059.4929583,1.2010495736751596,1.4868579656019134,-1.92284436798501,-0.01691283143525618,0.01279653325846243,0.010696281967094346,0.9997178574085231,-0.0011464340645074844,-0.0013251599132120609,-0.0007915444174408908,0.1101644895369942,-9.77181625366211,0.2714519500732422,-0.26582199335098267,0,0,0,-0.01691283143525618,0.01279653325846243,0.010696281967094346,0.9997178574085231,1.2010495736751596,1.4868579656019134,-1.92284436798501,0.0008424181599682877,-0.0011400334334157132,-0.0010790484833059866,0.0004651627030205873,-0.0011039651683017683,-0.0010608422965288574,0.0005082855747934979,0,0,0,0,0.03851799908241294,-0.14232481316985848,-0.055496386055377156,0.06884890619689427,0,0,0,0,0,0,0,0
running,attitudeInput,1619556059.5430143,1.1994969891999139,1.4871282872115574,-1.9192331782311483,-0.016881177532553478,0.01279945739946306,0.01068237283822451,0.9997185037028868,0.0010251009804010391,-0.002484152440264821,-0.0010668992498517032,0.16566427790510838,-9.777878761291504,0.25992676615715027,-0.259308785200119,0,0,0,-0.016881177532553478,0.01279945739946306,0.01068237283822451,0.9997185037028868,1.1994969891999139,1.4871282872115574,-1.9192331782311483,-2.6914257961676495e-05,-0.0006768180572279858,-0.0009670916672080477,0.0006933527030694672,-0.0004690670107377607,-0.0006743214487541617,0.00048809826505306626,0,0,0,0,0.039435815902925234,-0.1407064138349635,-0.05411352014223331,0.06901584059565542,0,0,0,0,0,0,0,0
running,attitudeInput,1619556059.592895,1.1990622534799351,1.488332064292678,-1.9139007118878946,-0.016834715123015237,0.012810520387230335,0.01067815848312413,0.9997191905057863,0.0018513908576965332,0.0019663666632920504,-0.0013074431070685382,0.17192222278809996,-9.78809642791748,0.3225918114185333,-0.257656067609787,0,0,0,-0.016834715123015237,0.012810520387230335,0.01067815848312413,0.9997191905057863,1.1990622534799351,1.488332064292678,-1.9139007118878946,-0.00035848469476023513,-0.0024584695480682917,-0.000870324229208376,0.000742155643612474,-0.0016116570094714398,-0.000488668684995922,0.0018651439680879914,0,0,0,0,0.03940306516604474,-0.14409961327478232,-0.05359583891625754,0.07382923352456951,0,0,0,0,0,0,0,0
running,attitudeInput,1619556059.6429358,1.1995657356564604,1.4930282551396425,-1.9062655475530554,-0.0167685807424562,0.01285212887023811,0.010682373426057648,0.9997197229130637,0.002228375334739685,0.0013079651423692704,2.1510323882107524e-06,0.14804539901836758,-9.768135070800781,0.34788811206817627,-0.23993715643882751,0,0,0,-0.0167685807424562,0.01285212887023811,0.010682373426057648,0.9997197229130637,1.1995657356564604,1.4930282551396425,-1.9062655475530554,-0.0005107794359414353,-0.002200539333840437,-0.0013947118568053262,0.0011667980131707415,-0.0013754284838038862,-0.0008056224103259131,0.0017366040866487152,0,0,0,0,0.04055752196094938,-0.14366481321349103,-0.05429806769258248,0.07356035648185795,0,0,0,0,0,0,0,0
running,attitudeInput,1619556059.6929088,1.198221541302362,1.492830152660764,-1.9078744358574504,-0.016782448548429658,0.012850447457322275,0.010670798310503606,0.999719635439998,-0.00041643921613693236,0.00011278954003565014,-0.0007386983805894847,0.04901446812789482,-9.784154891967773,0.33280959725379944,-0.24538135528564453,0,0,0,-0.016782448548429658,0.012850447457322275,0.010670798310503606,0.999719635439998,1.198221541302362,1.492830152660764,-1.9078744358574504,0.0005474611206817368,-0.001722249648837243,-0.0010968617538939455,0.0005820416487675575,-0.0014113711410239861,-0.0009691551196376006,0.001024257670153943,0,0,0,0,0.03851092996938141,-0.1444010773521187,-0.05453590850777185,0.07084788081372827,0,0,0,0,0,0,0,0
running,attitudeInput,1619556059.742981,1.1969665328807086,1.4948128317019391,-1.9099372021064864,-0.0168004807199861,0.012867736728884313,0.010660366660350964,0.9997192214725694,-0.0013927642288804054,0.001930639499515295,-0.00039482987165451004,0.13826044663389933,-9.783767700195312,0.3465663194656372,-0.22279086709022522,0,0,0,-0.0168004807199861,0.012867736728884313,0.010660366660350964,0.9997192214725694,1.1969665328807086,1.4948128317019391,-1.9099372021064864,0.0009384003742552058,-0.0024516460849727142,-0.0012330480207572928,0.0005401219829542077,-0.0020653502058055823,-0.001203671251058058,0.0014018009377017313,0,0,0,0,0.03834232234246741,-0.14848209815965135,-0.05532647404444331,0.07333985745767545,0,0,0,0,0,0,0,0
running,attitudeInput,1619556059.7929637,1.1956400210564309,1.4983227430589567,-1.9109962040578699,-0.016809883543924663,0.012898454085275587,0.010649419361169398,0.9997187842412084,0.00046045314192771913,1.99596422687173e-05,-0.00030145360767841294,0.03155378824626676,-9.767435073852539,0.31189897656440735,-0.2568066716194153,0,0,0,-0.016809883543924663,0.012898454085275587,0.010649419361169398,0.9997187842412084,1.1956400210564309,1.4983227430589567,-1.9109962040578699,0.0001973268273714695,-0.0016913831166899308,-0.0012689701070103903,0.0008275317989178693,-0.0012657540402680842,-0.0009670629366622627,0.0011262229025236906,0,0,0,0,0.0393074607714752,-0.14517055899123799,-0.05447023241190462,0.07202148135080856,0,0,0,0,0,0,0,0
running,attitudeInput,1619556059.8429575,1.1956220961043793,1.4986579238999822,-1.9059511357834267,-0.016765897240037946,0.012901849749771222,0.0106487433381336,0.9997194862700683,0.002722774442732334,0.0005216086017396301,-9.391582250595047e-05,0.15893147359618565,-9.763197898864746,0.3252558708190918,-0.2953941226005554,0,0,0,-0.016765897240037946,0.012901849749771222,0.0106487433381336,0.9997194862700683,1.1956220961043793,1.4986579238999822,-1.9059511357834267,-0.0007085999824674029,-0.0018924858744478765,-0.0013518970126216718,0.0012064634714663046,-0.0010876616687461617,-0.0007054076187149354,0.001588717521497531,0,0,0,0,0.04058345380327025,-0.14642020387680382,-0.053799552709301056,0.07441614497077301,0,0,0,0,0,0,0,0
running,attitudeInput,1619556059.8937593,1.1954655133539303,1.5024872281849397,-1.9014834835490102,-0.016727244187969177,0.012935695541875788,0.01064742409745708,0.9997197104402878,0.0017977224630117417,0.0027081222531348467,-0.00045550367474555924,0.18805951505920357,-9.767257690429688,0.2736388146877289,-0.22105789184570312,0,0,0,-0.016727244187969177,0.012935695541875788,0.01064742409745708,0.9997197104402878,1.1954655133539303,1.5024872281849397,-1.9014834835490102,-0.0003394564394787484,-0.0027715086071068585,-0.0012070897353055393,0.0009735573124716537,-0.0018397365550657104,-0.0007335253621987898,0.0020797685053385744,0,0,0,0,0.03953214583420757,-0.1487580378297426,-0.05374086378844038,0.07667753587550977,0,0,0,0,0,0,0,0
running,attitudeInput,1619556059.9430075,1.1958422581145571,1.501574819003131,-1.903086726513743,-0.016741192388721734,0.012927531457795342,0.010650760754424166,0.9997195470246462,-0.0012522360342741012,-0.0010375268732234835,0.0004788773632049565,0.09713080650391247,-9.76641845703125,0.26315003633499146,-0.23986758291721344,0,0,0,-0.016741192388721734,0.012927531457795342,0.010650760754424166,0.9997195470246462,1.1958422581145571,1.501574819003131,-1.903086726513743,0.0008808435203048201,-0.0012721834480144431,-0.0015812775222842882,0.0008067068457591979,-0.0012109947561901805,-0.001429557272130967,0.0005881443298184117,0,0,0,0,0.03947183046602222,-0.14787061935801504,-0.05634954589156589,0.07167050793247136,0,0,0,0,0,0,0,0
running,attitudeInput,1619556059.9928985,1.1973138565350658,1.5011432673735032,-1.9086112025095403,-0.01678951648737249,0.012923037399691376,0.010664160287768142,0.9997186518845407,-0.0015869179773330688,-0.0004015415881797671,0.0016480164168775086,0.13308790185212277,-9.768835067749023,0.29106882214546204,-0.2350471317768097,0,0,0,-0.01678951648737249,0.012923037399691376,0.010664160287768142,0.9997186518845407,1.1973138565350658,1.5011432673735032,-1.9086112025095403,0.0010158130353044895,-0.0015259910348376148,-0.0020506815341300075,0.0010909066759966137,-0.0014381827516043015,-0.0018091949616781083,0.0007198944659228068,0,0,0,0,0.04067218881701378,-0.14928066795499512,-0.05778107463709442,0.07265851613491447,0,0,0,0,0,0,0,0
running,attitudeInput,1619556060.0429158,1.1976058851622655,1.4986304026408663,-1.9086829592659396,-0.01678995109565568,0.012901065119028101,0.01066635390464584,0.9997189049704827,0.00034564528286457064,-0.0008349753891155123,-0.0009582222872972484,0.07546627449669087,-9.778281211853027,0.348105788230896,-0.24127008020877838,0,0,0,-0.01678995109565568,0.012901065119028101,0.01066635390464584,0.9997189049704827,1.1976058851622655,1.4986304026408663,-1.9086829592659396,0.00024279759486149275,-0.001349749874608203,-0.0010084722787443098,0.0006272556740475789,-0.0010402592021323252,-0.0007989394998299245,0.0008685753763499795,0,0,0,0,0.03859735303904346,-0.1477374165447006,-0.05486288495349714,0.07270301163024694,0,0,0,0,0,0,0,0
running,attitudeInput,1619556060.0929835,1.198407568808166,1.4989239397195036,-1.9055912119488096,-0.01676309457186663,0.012903796511306275,0.0106730421080005,0.9997192490235098,0.0017925894786417484,-0.0004913480345197022,-0.00021306737005710556,0.1071936146403893,-9.774087905883789,0.30218321084976196,-0.25939568877220154,0,0,0,-0.01676309457186663,0.012903796511306275,0.0106730421080005,0.9997192490235098,1.198407568808166,1.4989239397195036,-1.9055912119488096,-0.0003365896046819745,-0.0014875572951151223,-0.0013074069320304453,0.0010434787033827895,-0.0009328594548056595,-0.0008054739114352659,0.0011708642467531827,0,0,0,0,0.04059594789568314,-0.14738178551584716,-0.055347255406199926,0.07317447300533036,0,0,0,0,0,0,0,0
running,attitudeInput,1619556060.1429634,1.198202538747641,1.5033175198770024,-1.902637313030348,-0.016737693555804976,0.012942432217007919,0.01067155198632029,0.9997191910936508,0.002394304886907339,0.0015608168930709362,0.00040994459152221725,0.165434058500996,-9.763225555419922,0.32818275690078735,-0.23043511807918549,0,0,0,-0.016737693555804976,0.012942432217007919,0.01067155198632029,0.9997191910936508,1.198202538747641,1.5033175198770024,-1.902637313030348,-0.0005778522557995412,-0.0023134656780520076,-0.0015564172834428296,0.0013048548397782693,-0.001431565644693009,-0.0008962515911784704,0.0018401688932928079,0,0,0,0,0.04128459168525718,-0.14969305388849347,-0.05548333381023843,0.07567565376351224,0,0,0,0,0,0,0,0
running,attitudeInput,1619556060.1939316,1.1951774346459834,1.5078377559357048,-1.8958768721524988,-0.016678775177207908,0.012982937712845855,0.010645043888568047,0.999719933195064,0.0014119863477349281,0.0011093718956187368,-0.0012155578905344005,0.12424061582574847,-9.788305282592773,0.28449392318725586,-0.25566452741622925,0,0,0,-0.016678775177207908,0.012982937712845855,0.010645043888568047,0.999719933195064,1.1951774346459834,1.5078377559357048,-1.8958768721524988,-0.0001862620199914971,-0.0021381741204740973,-0.0009027574759118749,0.0007041995016908842,-0.00144606385123807,-0.0005724923642773923,0.0015777709886515617,0,0,0,0,0.03944126946864378,-0.15019036900318503,-0.05425747021383973,0.07509742225798906,0,0,0,0,0,0,0,0
running,attitudeInput,1619556060.2431426,1.1939739603324404,1.5082068923678245,-1.8961295098431177,-0.0166808757428929,0.012986309867411734,0.010634626009478945,0.9997199652253206,-0.0012892700764536857,0.0019197225362956524,-0.0004987552264332767,0.13554186737010646,-9.820398330688477,0.3367545008659363,-0.2341579645872116,0,0,0,-0.0166808757428929,0.012986309867411734,0.010634626009478945,0.9997199652253206,1.1939739603324404,1.5082068923678245,-1.8961295098431177,0.0008942882229939987,-0.0024627544823933806,-0.0011881192017098529,0.0005239485109798227,-0.002057609028305087,-0.0011563057777941466,0.0014252517614907628,0,0,0,0,0.03890714104122286,-0.15238288390074867,-0.056529313505533495,0.07540014143643803,0,0,0,0,0,0,0,0
running,attitudeInput,1619556060.292977,1.1926275260374624,1.5091508232992812,-1.8982905677968422,-0.01669966057536046,0.01299454060741985,0.010623259654797781,0.9997196655089748,-0.0002250747787952423,0.00033086846338910986,0.0002594521766901021,0.02732522334691653,-9.778182029724121,0.29297304153442383,-0.24699729681015015,0,0,0,-0.01669966057536046,0.01299454060741985,0.010623259654797781,0.9997196655089748,1.1926275260374624,1.5091508232992812,-1.8982905677968422,0.0004690364343942982,-0.0018282870611587463,-0.0014899190646577532,0.0008877024523467319,-0.0014586236005928572,-0.0012193612957304997,0.0011269647572090897,0,0,0,0,0.040542000801127666,-0.15232136933180054,-0.05630575792345586,0.07513564620947234,0,0,0,0,0,0,0,0
running,attitudeInput,1619556060.3429704,1.1937220002730986,1.5077810543331,-1.8985428964378903,-0.01670186416690993,0.012982407501721653,0.010632640311171707,0.999719686606612,0.0009613002617657185,-0.0011449671558141708,-4.196664929389908e-05,0.08569137285952755,-9.78641128540039,0.2785182595252991,-0.2225649356842041,0,0,0,-0.01670186416690993,0.012982407501721653,0.010632640311171707,0.999719686606612,1.1937220002730986,1.5077810543331,-1.8985428964378903,-5.46357030037657e-06,-0.0012363693011420665,-0.0013705755357954195,0.0009710749192937697,-0.0008723134530839848,-0.0009672115916848842,0.0008761767806928705,0,0,0,0,0.04047651125024991,-0.1498486137750916,-0.055940529326275044,0.07433689369906644,0,0,0,0,0,0,0,0
running,attitudeInput,1619556060.3929691,1.1912766825689767,1.5142046968468588,-1.8951465950219446,-0.016672527493920727,0.013039119818556346,0.010611841303808473,0.9997196592072524,0.001219987679719925,0.00030615151878073815,-0.0010244626054167743,0.0929467937385085,-9.785594940185547,0.3071470260620117,-0.2597914934158325,0,0,0,-0.016672527493920727,0.013039119818556346,0.010611841303808473,0.9997196592072524,1.1912766825689767,1.5142046968468588,-1.8951465950219446,-0.00010960434684819672,-0.0018242183922556414,-0.0009748632689605041,0.0007280834166635988,-0.001251166207077244,-0.0006505814397597166,0.0013286681839811262,0,0,0,0,0.03928920340968829,-0.15156329038378583,-0.05472425301414027,0.07594692977933382,0,0,0,0,0,0,0,0
running,attitudeInput,1619556060.4430218,1.192335431523803,1.5164050757839282,-1.8931807668968856,-0.016655693242746784,0.013058344612617526,0.010621168891113007,0.9997195898300525,0.0014602437582612038,0.00018784041709359736,0.0005028198039531712,0.08913911599392842,-9.78468132019043,0.32486438751220703,-0.20750927925109863,0,0,0,-0.016655693242746784,0.013058344612617526,0.010621168891113007,0.9997195898300525,1.192335431523803,1.5164050757839282,-1.8931807668968856,-0.0002060888393834878,-0.0017794030122696162,-0.0015869933097112717,0.001195037138921988,-0.00118536452851215,-0.0010493103230670585,0.0013310913443670793,0,0,0,0,0.041129192259058436,-0.15137497346686546,-0.05621348260643254,0.07557493611949136,0,0,0,0,0,0,0,0
running,attitudeInput,1619556060.4929495,1.1902746264284256,1.5151873564953913,-1.892632882468925,-0.016650570514236428,0.013048071163343524,0.010602953559175224,0.9997200026588889,0.00036532692283391954,-0.0008020641955584287,-0.0014463247233629222,0.09704196747199569,-9.775752067565918,0.29506155848503113,-0.25734516978263855,0,0,0,-0.016650570514236428,0.013048071163343524,0.010602953559175224,0.9997200026588889,1.1902746264284256,1.5151873564953913,-1.892632882468925,0.00023176163209384675,-0.0013821003618077143,-0.000804958736083415,0.00048725167002372494,-0.001059232648950826,-0.0006511318916961456,0.0008953524272784049,0,0,0,0,0.03795788645451022,-0.1514593477943583,-0.054230205020214285,0.07462397822865421,0,0,0,0,0,0,0,0
running,attitudeInput,1619556060.5430024,1.1882168572122367,1.517408663643023,-1.8929035768942177,-0.016652894511544378,0.013067724380447508,0.010585349473755954,0.9997198938004698,-8.506626218557356e-05,0.000511078079180792,-0.0017594539994001384,0.10508919808820823,-9.77625846862793,0.3065282106399536,-0.21038979291915894,0,0,0,-0.016652894511544378,0.013067724380447508,0.010585349473755954,0.9997198938004698,1.1882168572122367,1.517408663643023,-1.8929035768942177,0.0004119716502957481,-0.0019099222466148506,-0.0006774100192917008,0.00033334724449450353,-0.0014961729459107747,-0.0006246551920752399,0.0012048649983300377,0,0,0,0,0.03764425014270101,-0.15317861782794245,-0.054429103482993055,0.07590706148765043,0,0,0,0,0,0,0,0
running,attitudeInput,1619556060.5930011,1.1890078291958093,1.5207599963484708,-1.8943871335819418,-0.016666224532082944,0.01309671012147024,0.010592898621577486,0.9997192124004787,-0.0003821218419075012,0.0010229833449199796,0.00018413705140352295,0.06345151198420754,-9.765336036682129,0.2689889073371887,-0.19612917304039001,0,0,0,-0.016666224532082944,0.01309671012147024,0.010592898621577486,0.9997192124004787,1.1890078291958093,1.5207599963484708,-1.8943871335819418,0.0005310964131677923,-0.002118467331448831,-0.0014558314632751553,0.0008416573623391976,-0.0016857535533970367,-0.0012171992375539958,0.0013102116781822382,0,0,0,0,0.039478798055688054,-0.15403657647208358,-0.056277974778309724,0.0759299557494619,0,0,0,0,0,0,0,0
running,attitudeInput,1619556060.6429856,1.1865123906088075,1.5229269125251068,-1.8941851475604834,-0.016664368757699728,0.013115996378603705,0.010571414758440473,0.9997192179021612,0.0004570081797242165,-0.0005161109122484922,-0.000961267712116241,0.0677754235092461,-9.802267074584961,0.3099343776702881,-0.26316583156585693,0,0,0,-0.016664368757699728,0.013115996378603705,0.010571414758440473,0.9997192179021612,1.1865123906088075,1.5229269125251068,-1.8941851475604834,0.0001954022868569018,-0.0015053467109207518,-0.0009948663125154298,0.0006343915749057784,-0.0011335260083768662,-0.0007725618570016528,0.0009953557262809916,0,0,0,0,0.03814887977810196,-0.15282703961520483,-0.054260527838601365,0.07504529455470545,0,0,0,0,0,0,0,0
running,attitudeInput,1619556060.693057,1.1857602276788428,1.5234123191721038,-1.889772944411891,-0.01662583261938519,0.013120747342299278,0.010564416975926695,0.9997198711503391,0.00185391148224473,-0.0011469232824668288,-0.00022875736147165253,0.12559086832896024,-9.763860702514648,0.260942280292511,-0.2636445164680481,0,0,0,-0.01662583261938519,0.013120747342299278,0.010564416975926695,0.9997198711503391,1.1857602276788428,1.5234123191721038,-1.889772944411891,-0.00036423362963914366,-0.0012536418192150196,-0.0012869573720493892,0.0010387923196011556,-0.0007576825968189661,-0.0007812402501471279,0.001015234666272994,0,0,0,0,0.0398899665076239,-0.15305225406499373,-0.054409955729316256,0.07544972984330138,0,0,0,0,0,0,0,0
running,attitudeInput,1619556060.744084,1.1872342797867144,1.5199983433521442,-1.8869467840920573,-0.01660104332327473,0.013091009973971366,0.010576466913555323,0.9997205455356345,2.8597001433372515e-05,-0.0007795268877446651,0.000706081887185574,0.06028408022673461,-9.803003311157227,0.2965909540653229,-0.25955888628959656,0,0,0,-0.01660104332327473,0.013091009973971366,0.010576466913555323,0.9997205455356345,1.1872342797867144,1.5199983433521442,-1.8869467840920573,0.00036532955814137433,-0.001396719302402985,-0.001662465364699578,0.001046377028902013,-0.00111679319410812,-0.001304704036831664,0.0008584661861784689,0,0,0,0,0.03961508142630365,-0.15367591354943916,-0.05632454113159161,0.07464739884415121,0,0,0,0,0,0,0,0
running,attitudeInput,1619556060.7929034,1.1869593260569065,1.5179299351121431,-1.8844178955257138,-0.016578766370350856,0.013073237846231978,0.01057348495785631,0.9997211793163627,0.0007496232134103775,-0.0006005149891637265,-2.349293470382645e-05,0.05504884549162526,-9.770607948303223,0.2829321026802063,-0.2488255649805069,0,0,0,-0.016578766370350856,0.013073237846231978,0.01057348495785631,0.9997211793163627,1.1869593260569065,1.5179299351121431,-1.8844178955257138,7.64134875975055e-05,-0.0014660045911078258,-0.0013702463460767262,0.000941894235579787,-0.0010636380352501103,-0.000995926730834097,0.0010096055399958,0,0,0,0,0.0395384008548294,-0.15346211496542395,-0.055063502226703864,0.07424369459354947,0,0,0,0,0,0,0,0
running,attitudeInput,1619556060.8429127,1.1853073968200267,1.5217116988283306,-1.8830888584964118,-0.016567317194077266,0.01310659237008601,0.010559459244320382,0.9997210806309442,-0.0008068580213189125,0.000703418979138136,0.0005618125697970395,0.06926515886641076,-9.774641990661621,0.3570970296859741,-0.26335403323173523,0,0,0,-0.016567317194077266,0.01310659237008601,0.010559459244320382,0.9997210806309442,1.1853073968200267,1.5217116988283306,-1.8830888584964118,0.000698746137136717,-0.001991931334271516,-0.0016025384526086005,0.0008861217410030993,-0.001655552220069995,-0.0013802098729003773,0.001161464088172717,0,0,0,0,0.03961946692628981,-0.15563293186003432,-0.05706723872818157,0.07515988605814256,0,0,0,0,0,0,0,0
running,attitudeInput,1619556060.8931684,1.1844583612763828,1.5212277595207946,-1.8813363335314883,-0.016551887959805698,0.013102654489084388,0.010551782884284369,0.9997214688743404,0.0009264478427171707,-0.0024108247573524713,-0.00024836077034473374,0.14866090510643334,-9.787430763244629,0.31853824853897095,-0.24006037414073944,0,0,0,-0.016551887959805698,0.013102654489084388,0.010551782884284369,0.9997214688743404,1.1844583612763828,1.5212277595207946,-1.8813363335314883,5.07361791213625e-06,-0.0007457199001039555,-0.001277467494057249,0.0009015121329778559,-0.0005290973930446722,-0.000905099722608677,0.0005255098034138509,0,0,0,0,0.039528673554037226,-0.15247641367164025,-0.05544257441558925,0.0723920188100882,0,0,0,0,0,0,0,0
running,attitudeInput,1619556060.9429936,1.1856505673025788,1.522049166147348,-1.8788455926485574,-0.0165303671049251,0.013109878020023946,0.010562015672668668,0.9997216221962026,0.0013598415967822075,-0.0016282519766166806,0.0005082624530792241,0.1249876193297859,-9.793719291687012,0.2601121962070465,-0.25124591588974,0,0,0,-0.0165303671049251,0.013109878020023946,0.010562015672668668,0.9997216221962026,1.1856505673025788,1.522049166147348,-1.8788455926485574,-0.0001687723094720434,-0.0010596917677514542,-0.001581451972368016,0.0011779254360343632,-0.0006896452126925149,-0.0010585853915301665,0.0008089852571967112,0,0,0,0,0.04069771324242972,-0.15298855378131987,-0.0562889624210827,0.0739330296026669,0,0,0,0,0,0,0,0
running,attitudeInput,1619556060.9928997,1.18530836951799,1.5189321356040166,-1.875627981540153,-0.01650198142207976,0.013083030073584682,0.010558220735216776,0.9997224829462151,0.0015479268473386765,-0.002006160209238529,-0.00035803238540887787,0.14662507733630636,-9.779207229614258,0.3361617624759674,-0.24290108680725098,0,0,0,-0.01650198142207976,0.013083030073584682,0.010558220735216776,0.9997224829462151,1.18530836951799,1.5189321356040166,-1.875627981540153,-0.0002446506358994769,-0.0009050245033846224,-0.0012344388680776551,0.0009593771564110165,-0.0005534519016501934,-0.0007863830327448955,0.0007264460253163143,0,0,0,0,0.04012406896963352,-0.1520208484158388,-0.05513685982669763,0.07215043155877468,0,0,0,0,0,0,0,0
running,attitudeInput,1619556061.0429997,1.18312516249587,1.5249276842258872,-1.8755000790753509,-0.016501145008555977,0.013135662971488242,0.010540008338622705,0.9997219987556181,-0.00025486220002174376,0.0021589084087833763,-0.0010271774107217784,0.13775952174649359,-9.772453308105469,0.31853991746902466,-0.25123026967048645,0,0,0,-0.016501145008555977,0.013135662971488242,0.010540008338622705,0.9997219987556181,1.18312516249587,1.5249276842258872,-1.8755000790753509,0.0004764460002528012,-0.0025779211599408986,-0.0009644044782589434,0.0005134878475595917,-0.001991314632382481,-0.0008503860452075551,0.0016544164347345176,0,0,0,0,0.03871237057328496,-0.15742242319550112,-0.055604247219743344,0.07643640054904274,0,0,0,0,0,0,0,0
running,attitudeInput,1619556061.0930417,1.181693986758662,1.5303917222585968,-1.8739724250217296,-0.0164881345602471,0.01318367909064323,0.010528120406039305,0.9997217066289369,-4.6936984658241254e-05,0.0012920437172949314,-0.000895732405185699,0.09011874993494047,-9.780657768249512,0.2851315140724182,-0.23981833457946777,0,0,0,-0.0164881345602471,0.01318367909064323,0.010528120406039305,0.9997217066289369,1.181693986758662,1.5303917222585968,-1.8739724250217296,0.0003929806359637304,-0.002237441949017914,-0.0010154313259373106,0.000579078740117042,-0.0017210500109442904,-0.0008569580126819977,0.0014431707383793342,0,0,0,0,0.03891892667503677,-0.1556673304918672,-0.055630680728181975,0.07468964743872199,0,0,0,0,0,0,0,0
running,attitudeInput,1619556061.1434093,1.1789435025425743,1.5378392516195678,-1.8729626263484076,-0.016479662679020016,0.013249141564068902,0.010505061523488533,0.9997212234659165,-0.00018251054316759108,0.0005080801518131048,-0.0010786385709047313,0.06911012805758025,-9.82800579071045,0.26142820715904236,-0.22442111372947693,0,0,0,-0.016479662679020016,0.013249141564068902,0.010505061523488533,0.9997212234659165,1.1789435025425743,1.5378392516195678,-1.8729626263484076,0.00044701778610349547,-0.0019324001419736285,-0.0009392601035001927,0.0005061125345505752,-0.0015244578982877895,-0.0008222018424153545,0.0012083685904230098,0,0,0,0,0.03812918288011361,-0.15749152444809872,-0.055090058830594535,0.07504315149761778,0,0,0,0,0,0,0,0
running,attitudeInput,1619556061.1939838,1.1788123931575527,1.5415470242430682,-1.871469502615321,-0.016466946861740727,0.013281644829889675,0.010504268923397548,0.999721010035325,0.0008513878998160362,0.0007821766219064594,0.000556679119765759,0.07352085090565859,-9.756616592407227,0.29700326919555664,-0.25612354278564453,0,0,0,-0.016466946861740727,0.013281644829889675,0.010504268923397548,0.999721010035325,1.1788123931575527,1.5415470242430682,-1.871469502615321,3.316981755390266e-05,-0.002046280786714933,-0.0015932837601689092,0.0011148944497082942,-0.0014586663219594146,-0.0011383490526313792,0.0014352117190363294,0,0,0,0,0.04017697449458294,-0.15743685716399658,-0.0565334366736295,0.07584102898495003,0,0,0,0,0,0,0,0
running,attitudeInput,1619556061.2433891,1.174585533379059,1.5385242261482421,-1.8652367027997057,-0.016411816075839372,0.013256449855623936,0.01046624477820584,0.9997226498137175,0.0018278432977199555,-0.000688992671020329,-0.0016300448650121684,0.14576983509580713,-9.779800415039062,0.2939879298210144,-0.24892953038215637,0,0,0,-0.016411816075839372,0.013256449855623936,0.01046624477820584,0.9997226498137175,1.174585533379059,1.5385242261482421,-1.8652367027997057,-0.0003586635603000219,-0.0014545248304460455,-0.0007136327211216465,0.0006314212542080525,-0.0009016976531862841,-0.00037780781855539683,0.0011553110888389395,0,0,0,0,0.0381369326713133,-0.1560746417461044,-0.05314993871057856,0.07500152870683913,0,0,0,0,0,0,0,0
running,attitudeInput,1619556061.2929242,1.1741787028205806,1.542711943310139,-1.8620408369506063,-0.016384253936936762,0.013293334676020795,0.01046291446345095,0.9997226469861787,0.001502012178748846,0.002273426742941141,-0.0006537021571397777,0.1605492382530607,-9.773101806640625,0.27676016092300415,-0.22370374202728271,0,0,0,-0.016384253936936762,0.013293334676020795,0.01046291446345095,0.9997226469861787,1.1741787028205806,1.542711943310139,-1.8620408369506063,-0.00022895664820563012,-0.002644306496901449,-0.001103735260013027,0.0008614070862618807,-0.001788858656222687,-0.0006995102877179367,0.0019507554547666304,0,0,0,0,0.039252842616505045,-0.16031099075116576,-0.05413848569710063,0.07883080467057016,0,0,0,0,0,0,0,0
running,attitudeInput,1619556061.3429978,1.1739095606204428,1.5449178855053605,-1.8592928178981287,-0.016360441323170386,0.013312869238486761,0.01046055724652016,0.9997228016877691,0.0002219423618912697,0.0020996407863646746,-0.0002573945993185039,0.12186641011261788,-9.772836685180664,0.2812385559082031,-0.21260076761245728,0,0,0,-0.016360441323170386,0.013312869238486761,0.01046055724652016,0.9997228016877691,1.1739095606204428,1.5449178855053605,-1.8592928178981287,0.00028253084025103766,-0.002577341603362964,-0.0012619507100871778,0.0007924441681079016,-0.001922345461690082,-0.0009922236411437435,0.0017225659886542398,0,0,0,0,0.0384601136863601,-0.1619931161166427,-0.054991346805366624,0.07787481599763615,0,0,0,0,0,0,0,0
running,attitudeInput,1619556061.3931317,1.1735721728821107,1.549479714884847,-1.8576479737236342,-0.016346451022499073,0.013352866129197205,0.010458062432956664,0.9997225232209451,0.00047109722763299944,0.0007587385505400598,-0.0009279766553640361,0.07379281482010386,-9.772833824157715,0.28278467059135437,-0.2629155218601227,0,0,0,-0.016346451022499073,0.013352866129197205,0.010458062432956664,0.9997225232209451,1.1735721728821107,1.549479714884847,-1.8576479737236342,0.00018255137760798056,-0.002046200771512731,-0.0009933923608081334,0.0006378928161955703,-0.0015114240997165722,-0.0007669761332171194,0.0013823407826950224,0,0,0,0,0.03783848333276148,-0.16123741341741696,-0.05370362516064403,0.07810968358953439,0,0,0,0,0,0,0,0
running,attitudeInput,1619556061.442939,1.1746453482173653,1.5517040943870017,-1.8559719303023463,-0.016332148573369815,0.013372272212324078,0.010467541397822574,0.999722398386643,0.0009900432047247887,0.0006464659261479974,0.00011190274119377182,0.0680500688710464,-9.775705337524414,0.2652875483036041,-0.2562845051288605,0,0,0,-0.016332148573369815,0.013372272212324078,0.010467541397822574,0.999722398386643,1.1746453482173653,1.5517040943870017,-1.8559719303023463,-2.5351613928769213e-05,-0.002003824442790154,-0.0014105809483959061,0.001006394503084825,-0.0014079547027427445,-0.000988468204961769,0.0014258810008658004,0,0,0,0,0.03953061328749948,-0.16208098488877634,-0.05478537183803485,0.07918189833824098,0,0,0,0,0,0,0,0
running,attitudeInput,1619556061.4929733,1.1751754794193656,1.5552240924224954,-1.8508822360472823,-0.01628811501201998,0.013403371176066234,0.0104720642219191,0.9997226529500088,0.0011335702580213547,-0.0005774451394602656,0.0008101422837376599,0.08641516046388437,-9.777381896972656,0.3060380518436432,-0.2392772138118744,0,0,0,-0.01628811501201998,0.013403371176066234,0.0104720642219191,0.9997226529500088,1.1751754794193656,1.5552240924224954,-1.8508822360472823,-8.376179729441112e-05,-0.0015183187953894473,-0.0016904669100045358,0.001224954882871302,-0.0010439992487872422,-0.001165726348000051,0.0011032277836584938,0,0,0,0,0.04000887122909472,-0.16033079261288347,-0.0552692885515563,0.07784596129042189,0,0,0,0,0,0,0,0
running,attitudeInput,1619556061.5432045,1.1728887569337647,1.5580652235540817,-1.8508922843092037,-0.01628818347340561,0.01342848207523916,0.010452512456899639,0.9997225194680923,0.0006581002813577652,-0.00013650141521729528,-0.0007852142179012294,0.05921983743088865,-9.789430618286133,0.3184867799282074,-0.23955850303173065,0,0,0,-0.01628818347340561,0.01342848207523916,0.010452512456899639,0.9997225194680923,1.1728887569337647,1.5580652235540817,-1.8508922843092037,0.00010642774713384533,-0.001697973551400932,-0.0010497731669375271,0.0007046738341968286,-0.0012382765033233784,-0.0007799296159015778,0.001163020721618629,0,0,0,0,0.03801165231014594,-0.16239103592559664,-0.05373663914793298,0.0786018070878096,0,0,0,0,0,0,0,0
running,attitudeInput,1619556061.5929065,1.1708573918810519,1.557587289750372,-1.8510252282071913,-0.01628906356735681,0.013424589086386173,0.010434739169979007,0.999722743081508,-0.00044872630715370176,0.0005583650806881488,8.039516717195556e-05,0.04130029243947376,-9.771418571472168,0.342507004737854,-0.25567764043807983,0,0,0,-0.01628906356735681,0.013424589086386173,0.010434739169979007,0.999722743081508,1.1708573918810519,1.557587289750372,-1.8510252282071913,0.0005491783566778311,-0.00197541206914274,-0.0013936978369347962,0.000791329321377728,-0.0015909911397724696,-0.0011796570614655071,0.0012026633996846906,0,0,0,0,0.03893280459380114,-0.16394331982854818,-0.05564979911795971,0.07870399530438961,0,0,0,0,0,0,0,0
running,attitudeInput,1619556061.6429875,1.1704382343257578,1.5613220696733459,-1.8525083287584838,-0.016302279013076574,0.013457096864117848,0.010431778353163283,0.9997221215134534,-0.0008871240574121475,0.0015274687928110361,0.0005146345621347432,0.10541487254888042,-9.79751968383789,0.2959060072898865,-0.28854650259017944,0,0,0,-0.016302279013076574,0.013457096864117848,0.010431778353163283,0.9997221215134534,1.1704382343257578,1.5613220696733459,-1.8525083287584838,0.0007248373874359617,-0.0023672961995530512,-0.0015670072632847048,0.000851772746080434,-0.0019301999117378593,-0.0013643101779939435,0.0014176624798243498,0,0,0,0,0.0389850477533157,-0.16685371897591864,-0.056430677602264515,0.07939697312696983,0,0,0,0,0,0,0,0
running,attitudeInput,1619556061.6929765,1.1712745640446354,1.5648192196161654,-1.8507733863309042,-0.016287546344796854,0.013487645978675055,0.010439359492202118,0.9997218708287885,0.00024741589695215227,0.0005881269196476788,-0.00014400328189134552,0.03747708331198435,-9.778653144836426,0.30595794320106506,-0.264667809009552,0,0,0,-0.016287546344796854,0.013487645978675055,0.010439359492202118,0.9997218708287885,1.1712745640446354,1.5648192196161654,-1.8507733863309042,0.0002706870409675464,-0.00199554646737461,-0.0013045413235962906,0.0008267476951292751,-0.0015067667603771825,-0.001018152337376748,0.0013153621181297094,0,0,0,0,0.03857900098013445,-0.16494064585076806,-0.05526741918496919,0.07934815764593332,0,0,0,0,0,0,0,0
running,attitudeInput,1619556061.7432544,1.172049363945718,1.5672192238922786,-1.8473330333825895,-0.016257832692839886,0.013508787730052098,0.010446048726251706,0.9997219991558678,0.0024196797017753124,0.0011630455872006715,-4.267259180545761e-05,0.15384045737893287,-9.770936965942383,0.345600426197052,-0.2554478347301483,0,0,0,-0.016257832692839886,0.013508787730052098,0.010446048726251706,0.9997219991558678,1.172049363945718,1.5672192238922786,-1.8473330333825895,-0.0005988928460399385,-0.002228273180456096,-0.00134594642050728,0.0011634684373739343,-0.001363886479917145,-0.0007399872447349825,0.0017873676725560963,0,0,0,0,0.04039143387246687,-0.1649958294205667,-0.05472120451758111,0.08151385777545246,0,0,0,0,0,0,0,0
running,attitudeInput,1619556061.7931483,1.1714427297509837,1.561844231719538,-1.838612648142815,-0.016181213449228123,0.013462775395108128,0.0104389823538206,0.9997239367232277,0.003160326552093029,-0.0006469338525123894,0.0004319163537025456,0.1864776422435315,-9.789137840270996,0.33650222420692444,-0.24931490421295166,0,0,0,-0.016181213449228123,0.013462775395108128,0.0104389823538206,0.9997239367232277,1.1714427297509837,1.561844231719538,-1.838612648142815,-0.0008968904953487809,-0.0014982762561962335,-0.0015348599682755734,0.0014024085673608696,-0.0007423426252257071,-0.0007682112161179848,0.001376539976468592,0,0,0,0,0.0413906634417312,-0.16453818923611666,-0.054891986862387755,0.0803958788154601,0,0,0,0,0,0,0,0
running,attitudeInput,1619556061.8430126,1.170308300745735,1.5608535900526237,-1.8355018137672212,-0.016153854122122977,0.01345457606300998,0.010428582596872014,0.9997245980993897,0.0015429996852576733,-7.264909549057483e-05,-4.5729192495345614e-05,0.08854408049994239,-9.80445384979248,0.3433484137058258,-0.2465210258960724,0,0,0,-0.016153854122122977,0.01345457606300998,0.010428582596872014,0.9997245980993897,1.170308300745735,1.5608535900526237,-1.8355018137672212,-0.000250580681201116,-0.0017269200501769185,-0.001342444774556896,0.001037845452913454,-0.0011325232285912849,-0.0008606581540018005,0.0013097105275029384,0,0,0,0,0.04024881105776821,-0.16637477627389155,-0.05499660529069945,0.08035612404096032,0,0,0,0,0,0,0,0
running,attitudeInput,1619556061.8929865,1.1678172390352615,1.5583361459310705,-1.8351949139820658,-0.016150665119396775,0.013432992192967608,0.010406465211102011,0.9997251703437076,0.0002414060723781586,-0.00010608206252008676,-0.0007157086828351016,0.04370166668966543,-9.778464317321777,0.2652865946292877,-0.260053426027298,0,0,0,-0.016150665119396775,0.013432992192967608,0.010406465211102011,0.9997251703437076,1.1678172390352615,1.5583361459310705,-1.8351949139820658,0.00026998438805842266,-0.0017107299156431345,-0.0010715670701251362,0.0006622584459763792,-0.0013051226199352563,-0.0008531662375869902,0.001114214828324645,0,0,0,0,0.03911987980811277,-0.16596195274004585,-0.05468016659990708,0.08031420194825156,0,0,0,0,0,0,0,0
running,attitudeInput,1619556061.9441085,1.1663596862849315,1.5598190964121539,-1.8367250240084552,-0.016163972183526373,0.01344599651777699,0.010394134124117738,0.9997249087407517,-0.0001996366339921951,-0.00024093777505122124,0.0002611127248406415,0.023350097077542546,-9.78756332397461,0.2848750054836273,-0.2790539860725403,0,0,0,-0.016163972183526373,0.01344599651777699,0.010394134124117738,0.9997249087407517,1.1663596862849315,1.5598190964121539,-1.8367250240084552,0.00044670348058351494,-0.001658484847259383,-0.0014606866552359715,0.0008749279089559339,-0.0013306594121423635,-0.0011907949692561708,0.0010147923518421267,0,0,0,0,0.04003253153640998,-0.1657210998187285,-0.05584729357150017,0.08018152678363831,0,0,0,0,0,0,0,0
running,attitudeInput,1619556061.992957,1.1655382068455746,1.563400301568475,-1.8374193370952159,-0.016170244116808098,0.013477292902834623,0.010387545489630213,0.9997244543772624,-0.00041485783040523527,-9.030702971294521e-05,-0.0010363658392429347,0.06416913803038915,-9.772860527038574,0.25841379165649414,-0.24773383140563965,0,0,0,-0.016170244116808098,0.013477292902834623,0.010387545489630213,0.9997244543772624,1.1655382068455746,1.563400301568475,-1.8374193370952159,0.0005329343035762773,-0.001722821690030165,-0.0009408355351014073,0.0004768504568586214,-0.0014066396297884557,-0.0008536919168443372,0.0010297981698027395,0,0,0,0,0.03825961710504433,-0.1672291854541938,-0.05447232396628809,0.08029914359295004,0,0,0,0,0,0,0,0
running,attitudeInput,1619556062.0429568,1.1656005662540685,1.5634036526507873,-1.8401851049438838,-0.01619438096424516,0.013477062609359037,0.010388415276701804,0.9997240577462599,-0.0011311054262518883,0.000542930882839486,0.0009141086167097096,0.08894268753600756,-9.752613067626953,0.2808084487915039,-0.2632390260696411,0,0,0,-0.01619438096424516,0.013477062609359037,0.010388415276701804,0.9997240577462599,1.1656005662540685,1.5634036526507873,-1.8401851049438838,0.0008199811388344647,-0.0019760867990565372,-0.0017211388085501542,0.0009271218110316902,-0.0016872114876835547,-0.0015069360347466083,0.0011073972639686364,0,0,0,0,0.04037607279129863,-0.1678614285178835,-0.05761512569946217,0.07998138860971994,0,0,0,0,0,0,0,0
running,attitudeInput,1619556062.0929604,1.164149997341859,1.561695813299362,-1.842258504163544,-0.01621215108496315,0.013462180204315263,0.010375766526846191,0.9997241016052005,-0.0004327131468057632,0.000480103105256334,-0.0008522610613703723,0.06128475537757488,-9.777172088623047,0.32657527923583984,-0.23289072513580322,0,0,0,-0.01621215108496315,0.013462180204315263,0.010375766526846191,0.9997241016052005,1.164149997341859,1.561695813299362,-1.842258504163544,0.0005410275281670775,-0.0019490133599373806,-0.0010129405102504685,0.0005249749867488997,-0.001569442680422667,-0.0009075392207244362,0.0011868784464471305,0,0,0,0,0.03803326769158661,-0.16883835546502157,-0.05501338546871943,0.08032016168788876,0,0,0,0,0,0,0,0
running,attitudeInput,1619556062.1429985,1.1629491194288262,1.5598061974826287,-1.8414550747879734,-0.016204836992077077,0.013445937236251593,0.0103649327313945,0.9997245511636557,0.0005884028938412666,-0.0007544708180278539,-0.001346060397624969,0.09462173388611367,-9.795818328857422,0.28406596183776855,-0.25623512268066406,0,0,0,-0.016204836992077077,0.013445937236251593,0.0103649327313945,0.9997245511636557,1.1629491194288262,1.5598061974826287,-1.8414550747879734,0.00013241511518634214,-0.0014530638931356595,-0.000814007166541159,0.0005287741744557709,-0.0010742871452734796,-0.0006224058003356311,0.0009806555193936192,0,0,0,0,0.03823941863457667,-0.1683164593958584,-0.054210099068233014,0.07973883096220206,0,0,0,0,0,0,0,0
running,attitudeInput,1619556062.1999753,1.161338109115103,1.559700147649253,-1.8329348053971133,-0.016130305830379235,0.013446009429897363,0.010349863416643073,0.999725911633527,0.003019807670712471,0.0015380366264805198,-0.0010994983339309688,0.20413459151086719,-9.79175853729248,0.3135850429534912,-0.21872928738594055,0,0,0,-0.016130305830379235,0.013446009429897363,0.010349863416643073,0.999725911633527,1.161338109115103,1.559700147649253,-1.8329348053971133,-0.0008418383147588053,-0.0023700762930549497,-0.0009106657261631891,0.0009415727008784659,-0.0013782622282343265,-0.0003463031198498594,0.001973531809262933,0,0,0,0,0.039422585590632074,-0.16942457398860272,-0.053347700753696485,0.0838086868255383,0,0,0,0,0,0,0,0
running,attitudeInput,1619556062.2430663,1.1632995576027352,1.5578663591843052,-1.8283405441661484,-0.016090295527402144,0.013430150437876646,0.010366183436962663,0.9997266004713531,0.002038935941159725,-0.0012301745566576719,0.00046124370157718704,0.1389742759645503,-9.779741287231445,0.2997943162918091,-0.19135233759880066,0,0,0,-0.016090295527402144,0.013430150437876646,0.010366183436962663,0.9997266004713531,1.1632995576027352,1.5578663591843052,-1.8283405441661484,-0.0004503976752745877,-0.0012607220356804236,-0.0015370920000828316,0.0012461278017748224,-0.0007322254754122771,-0.0009276485513575048,0.0010507047258295947,0,0,0,0,0.040265815108646096,-0.16713150243506308,-0.054846137425467394,0.08002058011824179,0,0,0,0,0,0,0,0
running,attitudeInput,1619556062.2932224,1.1625633804108142,1.5597749404834325,-1.8256403342264453,-0.016066817231971516,0.013447148957774428,0.010359707368146514,0.999726816701537,0.0013391010430455208,0.0014463645664006472,-0.0003967837864160533,0.11520013497258086,-9.761377334594727,0.29502665996551514,-0.21361945569515228,0,0,0,-0.016066817231971516,0.013447148957774428,0.010359707368146514,0.999726816701537,1.1625633804108142,1.5597749404834325,-1.8256403342264453,-0.00017099656680596612,-0.0023335561907513623,-0.0011930359981150512,0.0009040602604408726,-0.001589616990786078,-0.0007831474284927554,0.0017105298227341951,0,0,0,0,0.0392717045318446,-0.17059915578067872,-0.05386410370685671,0.08366702660566662,0,0,0,0,0,0,0,0
running,attitudeInput,1619556062.3431187,1.16473446681381,1.5700698472771726,-1.8322748596427678,-0.016125846625696817,0.013536059340570642,0.010380850779640547,0.9997244470879083,-0.0022893466088175773,0.0017849231396764517,4.527499288320587e-05,0.16634641675293654,-9.763093948364258,0.24745571613311768,-0.25708961486816406,0,0,0,-0.016125846625696817,0.013536059340570642,0.010380850779640547,0.9997244470879083,1.16473446681381,1.5700698472771726,-1.8322748596427678,0.00128172219333989,-0.002480583465886664,-0.0013726183325666942,0.0005174305036849155,-0.0022071946172816546,-0.0014237449581928471,0.001300880162773723,0,0,0,0,0.03792657456929067,-0.1736748491584704,-0.05649795083162742,0.08150400089613366,0,0,0,0,0,0,0,0
running,attitudeInput,1619556062.3929513,1.165179579565353,1.569132655886066,-1.8363249993444788,-0.016161152244646232,0.013527453338161358,0.01038508256519971,0.9997239495102753,-0.0013821285250782966,0.0008136805288456381,-0.0002754035839438434,0.09323913150969265,-9.772529602050781,0.2363443374633789,-0.248246431350708,0,0,0,-0.016161152244646232,0.013527453338161358,0.01038508256519971,0.9997239495102753,1.165179579565353,1.569132655886066,-1.8363249993444788,0.0009196362372004226,-0.0020909632374898224,-0.0012448990713001358,0.0005551360654345119,-0.0018036747942154804,-0.001205417084983811,0.0011533937746661808,0,0,0,0,0.03825001539300438,-0.17411322363719015,-0.05544801806882008,0.08203691996137442,0,0,0,0,0,0,0,0
running,attitudeInput,1619556062.4429615,1.1640408838955032,1.5704866657434697,-1.8343049154179878,-0.01614351153497376,0.013539609587079294,0.010375097302023528,0.9997241736416717,0.0013215903159976006,-0.00028157129167020317,-0.0003205596902966495,0.0795698295835107,-9.777178764343262,0.2683414816856384,-0.27614301443099976,0,0,0,-0.01614351153497376,0.013539609587079294,0.010375097302023528,0.9997241736416717,1.1640408838955032,1.5704866657434697,-1.8343049154179878,-0.00016225166329744906,-0.0016544490420799664,-0.0012255337372628786,0.0009239478418796855,-0.0011125075110941206,-0.0008092185905032628,0.001227236762470543,0,0,0,0,0.03923717357772716,-0.1717722388442076,-0.054713359106692026,0.08248662431524274,0,0,0,0,0,0,0,0
running,attitudeInput,1619556062.4929707,1.1624166810972416,1.573628837794108,-1.8241927697790288,-0.01605537087269226,0.013568165869753838,0.010360165116249265,0.9997253607465578,0.002911525123268366,0.0010133443308956921,0.000652712447047234,0.18054880013015656,-9.782276153564453,0.2677798569202423,-0.22216959297657013,0,0,0,-0.01605537087269226,0.013568165869753838,0.010360165116249265,0.9997253607465578,1.1624166810972416,1.573628837794108,-1.8241927697790288,-0.0008002259793146189,-0.0021761422203025404,-0.0016128942191309678,0.0014234110479115956,-0.001255842312574769,-0.0008575658314565824,0.001821687529029782,0,0,0,0,0.04111248579086047,-0.172711407430936,-0.05485055847289042,0.08516390574890603,0,0,0,0,0,0,0,0
running,attitudeInput,1619556062.5430162,1.1621447514519998,1.5724558452444013,-1.8218843267919929,-0.01603509768426063,0.013558179094918705,0.01035735811023275,0.9997258506985116,0.001005187441110611,0.0007702059836089611,-0.0006018787124752994,0.08033426173722559,-9.772295951843262,0.2659068703651428,-0.24424023926258087,0,0,0,-0.01603509768426063,0.013558179094918705,0.01035735811023275,0.9997258506985116,1.1621447514519998,1.5724558452444013,-1.8218843267919929,-3.8151015842388376e-05,-0.0020775834903571143,-0.0011106914931409795,0.0007988659076118527,-0.0014555849535070775,-0.0007718890656005444,0.0014825617955183854,0,0,0,0,0.0387531609537794,-0.174564589405308,-0.05439143076355644,0.08418162759553097,0,0,0,0,0,0,0,0
running,attitudeInput,1619556062.5935838,1.160407194583695,1.5776904060940005,-1.820806731467589,-0.016025943374819735,0.013604187328830158,0.010342791063957493,0.9997255232808036,-0.0002643710035085678,-5.5002075204625716e-05,0.00018311352789402054,0.018693517031756243,-9.766902923583984,0.25174853205680847,-0.25068360567092896,0,0,0,-0.016025943374819735,0.013604187328830158,0.010342791063957493,0.9997255232808036,1.160407194583695,1.5776904060940005,-1.820806731467589,0.0004694646007172696,-0.001753504879973564,-0.001422787660146074,0.0008400820013307219,-0.001405895992820118,-0.0011720436040249384,0.0010739343901259018,0,0,0,0,0.039663331700757296,-0.17543360442690187,-0.05581004656964598,0.0835305865580132,0,0,0,0,0,0,0,0
running,attitudeInput,1619556062.6434655,1.1605902659934073,1.5775731285574395,-1.821789645310328,-0.01603453015617377,0.013603049832803714,0.01034448878973696,0.9997253835076891,-0.0005132362279295921,0.0006049619721677155,0.0002459889775514607,0.04759003417218843,-9.796749114990234,0.2729840576648712,-0.2484731525182724,0,0,0,-0.01603453015617377,0.013603049832803714,0.01034448878973696,0.9997253835076891,1.1605902659934073,1.5775731285574395,-1.821789645310328,0.000569205571461194,-0.0020173420423744317,-0.0014481593617097616,0.0008227587451690678,-0.001627720797870367,-0.001225247864638442,0.0012252316784009927,0,0,0,0,0.03938369778289147,-0.17609677541107457,-0.055928607648806035,0.08408186754515999,0,0,0,0,0,0,0,0
running,attitudeInput,1619556062.6930041,1.1611542578974985,1.5804502613614455,-1.8184764307363965,-0.016005940656107023,0.01362837108639495,0.01034941074474956,0.9997254458412476,0.0016412071850895882,-0.0006953772365152835,1.8931602537632444e-05,0.10213234151699271,-9.781012535095215,0.2693597972393036,-0.21095594763755798,0,0,0,-0.016005940656107023,0.01362837108639495,0.01034941074474956,0.9997254458412476,1.1611542578974985,1.5804502613614455,-1.8184764307363965,-0.00029322064567746014,-0.0015005110789297288,-0.0013579786354711082,0.0010639050553192904,-0.0009573524056855388,-0.0008565667483768605,0.001164690712627969,0,0,0,0,0.04008640896301741,-0.17511827609710276,-0.05469384400032167,0.08414375405979851,0,0,0,0,0,0,0,0
running,attitudeInput,1619556062.7430177,1.1606751993318478,1.5886469926272289,-1.8117482541883314,-0.015947894059541955,0.013700556077638584,0.010345551807950675,0.9997254268027888,-0.00018455479621887205,5.619366380479188e-05,-0.0009200781086087222,0.05386296746876973,-9.79066276550293,0.3196827173233032,-0.25749245285987854,0,0,0,-0.015947894059541955,0.013700556077638584,0.010345551807950675,0.9997254268027888,1.1606751993318478,1.5886469926272289,-1.8117482541883314,0.0004357667524815509,-0.0018105604254816784,-0.0009818712313906315,0.0005402209931206291,-0.0014343263674537678,-0.0008483546188159736,0.0011261927417584232,0,0,0,0,0.03811367657725476,-0.17575791295872464,-0.05513798849661164,0.08416069203936777,0,0,0,0,0,0,0,0
running,attitudeInput,1619556062.7931705,1.159718265406195,1.5891638141267002,-1.8119826338811713,-0.01594986908009433,0.013705177012162676,0.010337301969427311,0.9997254172958624,-0.0007046416434645653,0.0016414091248959303,-8.155810326337769e-05,0.10245208734977794,-9.791332244873047,0.2999802231788635,-0.22604729235172272,0,0,0,-0.01594986908009433,0.013705177012162676,0.010337301969427311,0.9997254172958624,1.159718265406195,1.5891638141267002,-1.8119826338811713,0.00064384631538501,-0.0024452496959706123,-0.0013162027827365447,0.0007030618652642584,-0.00195668668954052,-0.0011583299609149716,0.0015014185938898065,0,0,0,0,0.03865412671226637,-0.17898506304920514,-0.056289324095067185,0.08547904066640431,0,0,0,0,0,0,0,0
running,attitudeInput,1619556062.8432028,1.159580982971759,1.5916092790888674,-1.8124561525082796,-0.01595419497240606,0.013726488347406448,0.01033649539437678,0.9997250642268568,0.0004362462055683136,0.0024700971578210593,-0.0002342903488874431,0.14434196185025905,-9.790311813354492,0.3069227933883667,-0.21167299151420593,0,0,0,-0.01595419497240606,0.013726488347406448,0.01033649539437678,0.9997250642268568,1.159580982971759,1.5916092790888674,-1.8124561525082796,0.00018758935389925254,-0.002779506287880872,-0.001255004641414624,0.00082109944025459,-0.0020317305966214947,-0.0009537451444751546,0.0018990848924009302,0,0,0,0,0.03847993479209196,-0.1796877286932348,-0.055351929113299086,0.08719304037202767,0,0,0,0,0,0,0,0
running,attitudeInput,1619556062.893805,1.1577425531964123,1.5923606962085317,-1.8083841423135816,-0.01591851431022987,0.01373366661476484,0.010320071233945707,0.9997257040974769,0.0015828491155803204,0.0025114564948678017,-0.0016149378815293308,0.19362963865083405,-9.775022506713867,0.27423423528671265,-0.2547193765640259,0,0,0,-0.01591851431022987,0.01373366661476484,0.010320071233945707,0.9997257040974769,1.1577425531964123,1.5923606962085317,-1.8083841423135816,-0.00027186159924134077,-0.0027969868706255105,-0.0007006025802900084,0.0005915184256237436,-0.0018816507929251532,-0.0003992832452559718,0.0020738859732929247,0,0,0,0,0.03757561008757671,-0.1816799156245544,-0.053541708325063185,0.08890772938706792,0,0,0,0,0,0,0,0
running,attitudeInput,1619556062.9430175,1.1548417529661779,1.5928570081275262,-1.8048797859686379,-0.01588763643267821,0.0137387143691022,0.010294411504942163,0.9997263904828332,0.0018163721975684166,-6.62436334453523e-05,-0.0013774981224536891,0.13066826355490255,-9.768098831176758,0.310438871383667,-0.23045849800109863,0,0,0,-0.01588763643267821,0.0137387143691022,0.010294411504942163,0.9997263904828332,1.1548417529661779,1.5928570081275262,-1.8048797859686379,-0.0003659716197533021,-0.0017665656103351196,-0.0007922303655860803,0.0006895819707925075,-0.0011197600154542226,-0.0004308009567431229,0.001378541029503607,0,0,0,0,0.03810364641224335,-0.1788445125812737,-0.05370665162144236,0.08674081137207469,0,0,0,0,0,0,0,0
running,attitudeInput,1619556062.9929779,1.1535535925875797,1.5959521275571196,-1.8003883370092806,-0.015848563343809404,0.013766298763461794,0.010283055253599559,0.999726748083167,0.0011102662388980389,0.00010717970395553858,-0.000687379712760448,0.07506992386303842,-9.79564094543457,0.2775169610977173,-0.25375431776046753,0,0,0,-0.015848563343809404,0.013766298763461794,0.010283055253599559,0.999726748083167,1.1535535925875797,1.5959521275571196,-1.8003883370092806,-8.441601811424087e-05,-0.001839535031688736,-0.0010667959494600678,0.0007841842194302286,-0.0012709021257126425,-0.0007244930805808825,0.0013305932645619886,0,0,0,0,0.038312368846484056,-0.18099847741752065,-0.05391449150146574,0.08761682976253896,0,0,0,0,0,0,0,0
running,attitudeInput,1619556063.042999,1.1508844440409522,1.596287013487574,-1.798647994200191,-0.015833088178710014,0.013769745379642597,0.010259605273498677,0.9997271867517343,0.0002007324215769768,-0.0008313861883282661,-0.001842542874217033,0.11638888060590132,-9.780004501342773,0.30421575903892517,-0.2787431478500366,0,0,0,-0.015833088178710014,0.013769745379642597,0.010259605273498677,0.9997271867517343,1.1508844440409522,1.596287013487574,-1.798647994200191,0.0002790462927826492,-0.0014645584985361981,-0.0006016708977572662,0.00032678780890097196,-0.001134257008705123,-0.00052410333479255,0.0009369414828135446,0,0,0,0,0.036052733039499636,-0.18048704281590133,-0.05280309976745761,0.08630071708794337,0,0,0,0,0,0,0,0
running,attitudeInput,1619556063.0930088,1.1512093632210245,1.594936839748957,-1.7976943618966426,-0.015824691712721557,0.013758006561168247,0.010262142203617215,0.9997274552722122,-0.00031609572798013685,0.0005575914426669479,0.00021098894387483642,0.03866259853171812,-9.77236557006836,0.28856974840164185,-0.23715651035308838,0,0,0,-0.015824691712721557,0.013758006561168247,0.010262142203617215,0.9997274552722122,1.1512093632210245,1.594936839748957,-1.7976943618966426,0.00048558699092525145,-0.002018617497697532,-0.0014234146472835033,0.0008348252224648151,-0.0015990590483133523,-0.0011781870766040313,0.0012556971941741367,0,0,0,0,0.03801979309208115,-0.1824328992521583,-0.05507127660281237,0.08775458674142708,0,0,0,0,0,0,0,0
