State,Routine,Timestamp,Yaw,Pitch,Roll,q1,q2,q3,q4,Vel_Yaw,Vel_Pitch,Vel_Roll,Vel_Mag,Accel_Yaw,Accel_Pitch,Accel_Roll,Target_Yaw,Target_Pitch,Target_Roll,q1_Error,q2_Error,q3_Error,q4_Error,Yaw_Error,Pitch_Error,Roll_Error,Req_InertTorque_Yaw,Req_InertTorque_Pitch,Req_InertTorque_Roll,Req_Torque_M1,Req_Torque_M2,Req_Torque_M3,Req_Torque_M4,Accel_M1,Accel_M2,Accel_M3,Accel_M4,Duty_M1,Duty_M2,Duty_M3,Duty_M4,RPM_M1,RPM_M2,RPM_M3,RPM_M4,TargetRPM_M1,TargetRPM_M2,TargetRPM_M3,TargetRPM_M4
running,attitudeInput,1618274647.165796,46.78863779443809,-77.56494706133783,-142.7639953589107,0.5986067979729089,0.476852691477298,0.4459744653429083,-0.4640993302231593,-0.47530521577835083,0.0025281779260337353,0.07695762421607971,0.4815017297525666,-9.796751022338867,0.27268680930137634,0.1277320235967636,145,15,175,-0.2031449413314027,0.6339105756078667,0.4892694070425644,0.5634757867700988,133.86900378711002,65.94740839544964,73.78986567955273,1.79578075832276,0.4882385009639418,-0.6965680376467595,-0.14235639288934238,-0.28966762099921434,-1.1274523588450025,-0.9801411307351302,0,0,0,0,-0.5667925347361443,-0.6392463354053273,-0.6486819912920189,-0.7503616675798399,0,0,0,0,0,0,0,0
running,attitudeInput,1618274647.217184,50.09636804113294,-76.76057150975176,-145.97759093587837,0.6022058852636973,0.4819299125646427,0.4407781072250669,-0.4591364626342478,-0.46702744192123413,-0.0020895063619166612,0.07568427528858185,0.47312483243884595,-9.748176574707031,0.23150470852851868,0.1156265139579773,145,15,175,-0.19917377677470327,0.6283845000478916,0.49046688303649116,0.5700043538336624,131.25218759140796,65.74693690179339,71.41364155714888,1.7644711935993602,0.523225786477847,-0.6596924214391906,-0.15736178840418924,-0.2538582713910644,-1.0903077577982403,-0.9938112748113648,0,0,0,0,-0.6270737898824302,-0.6392463354053273,-0.6486819912920189,-0.7503616675798399,0,0,0,0,0,0,0,0
running,attitudeInput,1618274647.2652862,54.33311665263839,-75.51351863169006,-150.081738431172,0.6073958982541808,0.48936503313810387,0.4331208955115819,-0.45166179492733805,-0.4598965508365631,-0.005058022795528173,0.07128616775989532,0.4654160920937946,-9.766462326049805,0.15441776812076569,0.12197637557983398,145,15,175,-0.1933848955799118,0.6200824050453746,0.49213731355086954,0.5795696314728922,127.46769831937294,65.38205807367913,67.97744897556139,1.7374783605141313,0.5516040129026984,-0.5995535021549612,-0.19034301838429726,-0.22424842738900377,-1.0382397125001301,-1.0043343034954235,0,0,0,0,-0.7595694603565658,-0.6392463354053273,-0.6486819912920189,-0.7503616675798399,0,0,0,0,0,0,0,0
running,attitudeInput,1618274647.3152912,56.75476244707677,-74.65731139979253,-152.43548136083209,0.6108172876852069,0.4941469396756432,0.4281250982462108,-0.4465757979624017,-0.45800070590019226,-0.007289753409385681,0.061650335599184036,0.4621888693914384,-9.807084083557129,0.1250000149011612,0.13279284536838531,145,15,175,-0.18966455181165165,0.6144582449052475,0.4932802784105878,0.585784081368913,125.03526875479095,65.09336931788172,65.75501532258765,1.730281244757165,0.5676645368721919,-0.535004642696763,-0.23344138994667893,-0.2103473573023981,-0.990052211581013,-1.0131462442252936,0,0,0,0,-0.7595694603565658,-0.6392463354053273,-0.6486819912920189,-0.7503616675798399,0,0,0,0,0,0,0,0
running,attitudeInput,1618274647.3652713,59.85660266720038,-73.33689956472138,-155.4743775155267,0.6160013858665268,0.5009775231808679,0.4207435011667661,-0.4387923428046722,-0.4527319533252716,-0.005391356649160385,0.04722568001270294,0.4552203347181412,-9.795170783996582,0.09092892706394196,0.11544933915138245,145,15,175,-0.1842288404317422,0.6058614840460826,0.49515912373585735,0.5948184922174092,121.53680470264891,64.5819889090562,62.5313162045567,1.7103325875273943,0.5655711766770141,-0.44278103679683706,-0.29160041166262374,-0.2047746710905059,-0.9177873590623313,-1.0046130996344491,0,0,0,0,-0.7595694603565658,-0.6392463354053273,-0.6486819912920189,-0.7503616675798399,0,0,0,0,0,0,0,0
running,attitudeInput,1618274647.4155068,61.630057918172426,-72.43671856354193,-157.23621033806413,0.6195158493576132,0.5052991906696103,0.4159091600690492,-0.4334655821100565,-0.45273520177841187,-0.00561203399887681,0.03681209664463997,0.4542640072846606,-9.78515625,0.09152254462242126,0.09829489886760712,145,15,175,-0.18071984747086783,0.599993272695414,0.49654644410382576,0.6006580044402964,119.30598899213044,64.19135856927441,60.452826334655924,1.7103159160407806,0.5680200833217912,-0.3805524876794227,-0.33559674646632925,-0.20303713833487275,-0.8737792357373889,-1.0063388438688452,0,0,0,0,-0.7595694603565658,-0.6392463354053273,-0.6486819912920189,-0.7503616675798399,0,0,0,0,0,0,0,0
running,attitudeInput,1618274647.465318,63.181551729066555,-71.52435368354793,-158.81031889530925,0.6231290229641018,0.5093603464795943,0.41117466978606915,-0.4280159449136315,-0.4504923386001587,-0.003902243098527193,0.01973999552100897,0.4509415062530943,-9.785013198852539,0.06355849653482437,0.14999118447303772,145,15,175,-0.17732825126193175,0.5940019857335815,0.4981168263590219,0.6062969235836213,117.17288055262969,63.759170998170426,58.43729096028827,1.701816881657788,0.561026264324526,-0.2927377240187558,-0.3946862989162049,-0.20497765275135443,-0.8086799584417615,-0.9983886046066118,0,0,0,0,-0.7595694603565658,-0.6392463354053273,-0.6486819912920189,-0.7503616675798399,0,0,0,0,0,0,0,0
running,attitudeInput,1618274647.515319,65.13596541073348,-70.14567322698437,-160.86567491903284,0.6287254324254486,0.5149150044241207,0.40430318428884227,-0.4196496205338959,-0.44400550550460816,-0.0011438283811360597,-0.005379578288197517,0.44403956707069125,-9.763285636901855,0.08166138827800751,0.121504046022892,145,15,175,-0.17249168956162925,0.5848266686489665,0.5008278662798521,0.6143255106429304,114.18018635657809,63.040242797086634,55.55208440391043,1.677278959488555,0.5475956532874419,-0.16621021219584894,-0.4754792949517972,-0.2057990633101093,-0.7105360312440768,-0.9802162628857647,0,0,0,0,-0.7595694603565658,-0.6392463354053273,-0.6486819912920189,-0.7503616675798399,0,0,0,0,0,0,0,0
running,attitudeInput,1618274647.5652626,66.22934012158984,-69.22550272036707,-162.0720437806658,0.6325641356550452,0.5182633526408388,0.3998991009631719,-0.41394011721662144,-0.4354772431278229,-0.00020096741831302642,-0.025674060176610947,0.4362334547419127,-9.843774795532227,0.11492809653282166,0.11868473887443542,145,15,175,-0.1694592376877035,0.5785876923214236,0.5028649820786752,0.6193921688683882,112.32424242899852,62.52045253151429,53.72065793758461,1.645044574120593,0.5412760580244045,-0.06898205007487378,-0.5328334114693106,-0.1988711157344243,-0.630388762245497,-0.9643510579803835,0,0,0,0,-0.7595694603565658,-0.7938294311628479,-0.6486819912920189,-0.7503616675798399,0,0,0,0,0,0,0,0
running,attitudeInput,1618274647.6152997,67.61370811520959,-67.85371046175766,-163.66362637313264,0.6383387021571885,0.5228769174200822,0.3934651984870349,-0.40534993294326244,-0.43108479804039,0.0005266106479763985,-0.030678723196983337,0.43217538624648155,-9.810513496398926,0.12926508486270905,0.11601945012807846,145,15,175,-0.16507969109533316,0.5691988379075619,0.5060794747548993,0.6266138713309467,109.7462581572873,61.693390920282084,51.138943707417624,1.6284283454685236,0.5334254246301928,-0.03047344291921758,-0.5541883847443115,-0.19854762786526858,-0.5972843410128715,-0.9529250978919144,0,0,0,0,-0.7595694603565658,-0.7925298816269489,-0.6486819912920189,-0.7503616675798399,0,0,0,0,0,0,0,0
running,attitudeInput,1618274647.665534,68.77120998526537,-66.49978658459165,-165.02872273402028,0.6439278673655381,0.5272242480188774,0.3870941109935643,-0.39692523624116105,-0.4181429309272766,0.004831823872119188,-0.02736187000155449,0.4190650655165214,-9.782943725585938,0.1643170714378357,0.09976012259721756,145,15,175,-0.16073720866277785,0.5599487681689481,0.5092053265280291,0.6335067972901788,107.387975233594,60.82785905719196,48.772896967427656,1.5795259822074073,0.5097231527662754,-0.02880915210781923,-0.5380756197239263,-0.19801806869078012,-0.5788179133552737,-0.9188754643884197,0,0,0,0,-0.7595694603565658,-0.7904024807409935,-0.6486819912920189,-0.7503616675798399,0,0,0,0,0,0,0,0
running,attitudeInput,1618274647.715277,69.45098816920343,-65.61387862450964,-165.82585606863537,0.6474428676446046,0.5300704840658099,0.3828347111720577,-0.39151066266473045,-0.40908472365379334,0.006245483064740896,-0.020373527150154114,0.4096393508858133,-9.797475814819336,0.20273935794830322,0.089629627764225,145,15,175,-0.1578009253755765,0.5539628948873035,0.5111034016132685,0.6379633938542526,105.92675635649168,60.241048272648676,47.32481963462377,1.545301909479838,0.49951923919403596,-0.04866951776680306,-0.5119321835368713,-0.1931332882196091,-0.5807612756368427,-0.8995601709541048,0,0,0,0,-0.7595694603565658,-0.7707788261945403,-0.6486819912920189,-0.7503616675798399,0,0,0,0,0,0,0,0
running,attitudeInput,1618274647.7653148,70.333284658228,-64.32283348999175,-166.89309085518764,0.6525269487958552,0.5340547994555441,0.3766593886136971,-0.3835645411698352,-0.3921021980667114,0.005135577058136463,-0.02705116588950157,0.3930677720908291,-9.752055168151855,0.233445405960083,0.1078484058380127,145,15,175,-0.15357388578719972,0.545174138389397,0.5138852746716331,0.6442997321986558,103.91628618088798,59.35588334088683,45.319395955048826,1.4811405399964799,0.4972274084514926,-0.009155548128741753,-0.5171883096935949,-0.17206938755304435,-0.530136210028221,-0.8752551321687716,0,0,0,0,-0.7595694603565658,-0.686158706105012,-0.6486819912920189,-0.7503616675798399,0,0,0,0,0,0,0,0
running,attitudeInput,1618274647.8153858,70.83843251035285,-63.49599303748247,-167.53646472295716,0.6557977705594882,0.5364709672466762,0.3727736337594781,-0.378375479391008,-0.37793232625961304,0.0031643350400924683,-0.03382280115365982,0.3794559765323621,-9.75816535949707,0.26575803756713867,0.10711805522441864,145,15,175,-0.1509596817348099,0.5394523610459092,0.5157298131213796,0.6482477030505437,102.69913086485464,58.77148307460284,44.08568186079847,1.427609295958644,0.5007141669862399,0.02593370148431645,-0.5230740032094829,-0.15067772411651156,-0.4863982108478273,-0.8587944899407985,0,0,0,0,-0.7595694603565658,-0.6002218628978326,-0.6486819912920189,-0.7503616675798399,0,0,0,0,0,0,0,0
running,attitudeInput,1618274647.8652823,71.28297404091886,-62.702696696779334,-168.129892486667,0.6589532746930535,0.5386846130343559,0.3691023575632128,-0.3733134327781493,-0.3610477609062195,0.0014940636490434409,-0.038125768493413925,0.36305824891440686,-9.771201133728027,0.2967832088470459,0.05715405195951462,145,15,175,-0.14852756493221828,0.5338859184592908,0.51755416105863,0.651953279688877,101.58107676791018,58.198562249401384,42.93553747742468,1.3638259539002369,0.5029881597058132,0.05022908046870411,-0.5177026135927202,-0.12651895159601204,-0.4466679667683493,-0.8378516287650574,0,0,0,0,-0.7595694603565658,-0.5031686976621429,-0.6486819912920189,-0.7503616675798399,0,0,0,0,0,0,0,0
running,attitudeInput,1618274647.9153185,71.82235413955564,-61.58679562530365,-168.92152222962292,0.6635095560454048,0.5415117643562223,0.3640666320351991,-0.3660267279021959,-0.33229304975509644,-0.0004999990899153053,-0.051184896569252014,0.33621245448590675,-9.766767501831055,0.3584962487220764,0.11083143949508667,145,15,175,-0.1452610351019013,0.525896566153293,0.5203328051063653,0.6569519048754187,100.10651074430513,57.36739503237495,41.373227082321755,1.255204086343422,0.5044689300423179,0.1127572023263283,-0.5235130430058196,-0.08706825928240434,-0.364050278220679,-0.8004950619440943,0,0,0,0,-0.7595694603565658,-0.34468322177440686,-0.6486819912920189,-0.7503616675798399,0,0,0,0,0,0,0,0
running,attitudeInput,1618274647.9653683,72.10116598997303,-60.900872956103186,-169.38638189778771,0.6664079343078368,0.5430482507032993,0.36106253388730464,-0.36143174891330115,-0.2976554197692871,-0.0018515466920137405,-0.060246531109809875,0.3036969240113382,-9.774393081665039,0.4078211188316345,0.09407763928174973,145,15,175,-0.1433604334491536,0.5208747386168034,0.5222044314670934,0.6598786438037509,99.26011277004949,56.840917486161636,40.442102067718025,1.1243681685253828,0.5057699082532677,0.15517451944373029,-0.5072491332233241,-0.03989084641131508,-0.2877992232912731,-0.7551575101032821,0,0,0,0,-0.7595694603565658,-0.1551571503283104,-0.6486819912920189,-0.7503616675798399,0,0,0,0,0,0,0,0
running,attitudeInput,1618274648.0152776,72.42254078486987,-59.96599609411082,-170.0038093354348,0.670488565574105,0.5448880135061668,0.35710046222394287,-0.3549949239793847,-0.27322216457366943,-0.0013379413842260837,-0.0656756797838211,0.2810078935128619,-9.777655601501465,0.46050649881362915,0.09206788241863251,145,15,175,-0.14092880271815478,0.5138689724437656,0.5249708820906981,0.6636891777639067,98.17635640236948,56.10547599849654,39.2007344804795,1.0320729561439657,0.49768268412671407,0.18417304072491392,-0.4951228989926551,-0.01297809215920029,-0.23466288697598944,-0.7168076938094442,0,0,0,0,-0.7595694603565658,-0.04704039964647553,-0.6486819912920189,-0.7503616675798399,0,0,0,0,0,0,0,0
running,attitudeInput,1618274648.0651588,72.63710933348791,-59.15437119070572,-170.524780520355,0.6742026005421766,0.5461837033214151,0.35380604043245384,-0.34922127856386365,-0.23495568460464478,-0.002068390019521117,-0.0701181927728653,0.24520402305639863,-9.7929105758667,0.49757319688796997,0.11086060106754303,145,15,175,-0.13898655433548368,0.50761205833793,0.5276425578689311,0.66678787261723,97.3089357838352,55.447775302344375,38.14751687387363,0.8875311050519596,0.4954045612045804,0.20799645998235988,-0.4608653387644386,0.03651429321038933,-0.16671392413179237,-0.6640935561066201,0,0,0,0,-0.7595694603565658,0.1517856231205081,-0.6646441744418067,-0.7503616675798399,0,0,0,0,0,0,0,0
running,attitudeInput,1618274648.115306,72.73001419155918,-58.67529030540697,-170.82097370402693,0.6764837184675343,0.5467951244866676,0.35191527907620385,-0.3457463041576369,-0.21409145123004913,-0.0009482540165111422,-0.07012506220817566,0.2252855366533077,-9.78547191619873,0.48109349608421326,0.08822749555110931,145,15,175,-0.1378987432875478,0.5038499079883276,0.5293557507530035,0.6685070650072391,96.83373793169947,55.04971592988447,37.54044616820252,0.8087221462782053,0.48759791547074105,0.2111260126604496,-0.43521509210160997,0.058857335657256885,-0.1366378216274482,-0.6307102493863149,0,0,0,0,-0.7595694603565658,0.24154444628190241,-0.5438192880150311,-0.7503616675798399,0,0,0,0,0,0,0,0
running,attitudeInput,1618274648.165303,72.80535931399648,-58.05365704005084,-171.18677891430062,0.6795636335966506,0.5473865310522603,0.34951164247702105,-0.3411786413134698,-0.1768377733850479,0.0003552771111214534,-0.06749362890005112,0.1892805173801706,-9.790083885192871,0.563506007194519,0.08344399183988571,145,15,175,-0.13653539511259158,0.4988993229017822,0.531758079372596,0.6705899615350351,96.26454751322014,54.52031412351918,36.77375942788161,0.6680094585493735,0.47802274307668585,0.20408963106820058,-0.3804901711166934,0.10183611417241126,-0.09186384692032265,-0.5741901322094273,0,0,0,0,-0.7595694603565658,0.4142033216167302,-0.3639485614778287,-0.7503616675798399,0,0,0,0,0,0,0,0
running,attitudeInput,1618274648.2168539,72.81688147250559,-57.70709147786929,-171.38349361093074,0.681385832177844,0.5475602742622124,0.34822730715456435,-0.3385688058712418,-0.1509070855998993,0.0006334599481858313,-0.06858469937324524,0.16576251308386863,-9.773122787475586,0.6178411245346069,0.11971265077590942,145,15,175,-0.13583243544394524,0.49607405309840247,0.5332500136900086,0.671643139042971,95.97735309116133,54.216747271665334,36.35337622200592,0.5700656391701334,0.47450935499810937,0.21063741567720778,-0.3504917845862857,0.1339801430662954,-0.052605494592359234,-0.5370774222449404,0,0,0,0,-0.7595694603565658,0.5433356997179675,-0.2062357740365908,-0.7503616675798399,0,0,0,0,0,0,0,0
running,attitudeInput,1618274648.2653015,72.78495414739733,-57.42269515928696,-171.54751917704465,0.6830765581870772,0.5474492812195435,0.3473063031358215,-0.33627969303785,-0.12333174175262451,-0.0006183088964819908,-0.07710060868740082,0.1454496637658377,-9.745757102966309,0.6438361406326294,0.0989847257733345,145,15,175,-0.13539817513110847,0.49361970333354815,0.5347513516419132,0.672345085926277,95.77826263160085,53.956867502225045,36.00115877933753,0.4659088850855787,0.4777330114932209,0.24746024458106713,-0.33970448304689255,0.17308458599398893,0.010257150987815862,-0.5025319180530655,0,0,0,0,-0.7595694603565658,0.7004301861075668,0.04630266612912623,-0.7503616675798399,0,0,0,0,0,0,0,0
running,attitudeInput,1618274648.3153212,72.65026358754287,-57.11909688973595,-171.73863336970092,0.6853982723701592,0.5466805817663114,0.3466897687675551,-0.3334302835429733,-0.0781209406876564,-0.003055243866801262,-0.09099287186145782,0.11996632285189723,-9.75017261505127,0.7279991507530212,0.10539691150188446,145,15,175,-0.1353305544240251,0.4906325066171609,0.5370828507177209,0.6726866997011118,95.65078892804436,53.6538684522309,35.59386394478979,0.2951412048810452,0.4857300337656624,0.30669967866631065,-0.32121759626216106,0.23911482701219283,0.11252124888320576,-0.4478111743911481,0,0,0,0,-0.7595694603565658,0.7004301861075668,0.457128770075355,-0.7503616675798399,0,0,0,0,0,0,0,0
running,attitudeInput,1618274648.3652856,72.50994683378144,-57.002130027670745,-171.8270690818823,0.6867538867047335,0.5458089167889525,0.3467770790377298,-0.3319749733092428,-0.02859879037976265,-0.002187854491457343,-0.0914722347664833,0.09586369099735328,-9.813552856445312,0.7999191284179688,0.09505672752857208,145,15,175,-0.1356542925446409,0.48915828000131123,0.538629691783828,0.6724582850625236,95.67469761544234,53.514940107965536,35.40690794683018,0.10809371027535739,0.4813652289220724,0.3095413601548929,-0.25709569259289183,0.3021597198285526,0.18066189705357263,-0.3785935153678717,0,0,0,0,-0.7595694603565658,0.7004301861075668,0.7308705580960022,-0.7503616675798399,0,0,0,0,0,0,0,0
running,attitudeInput,1618274648.415372,72.24863955981003,-56.957309469461805,-171.8584186031841,0.6882520141824274,0.5442363742391225,0.34739728748160514,-0.33080365563171865,0.0025291504836082463,0.0008548167559280992,-0.07612304780960083,0.07616984785121816,-9.81332778930664,0.8241490125656128,0.05990082770586014,145,15,175,-0.1363811515133011,0.4880120753949965,0.5405901350723634,0.6715703251655916,95.8530280250546,53.40999449393062,35.29974067147697,-0.009474438794567167,0.4684947447779223,0.246527389128907,-0.17097146864147725,0.33462553094251735,0.1776709085610526,-0.32792609102294196,0,0,0,0,-0.6817480306268066,0.7004301861075668,0.7188548441297287,-0.7503616675798399,0,0,0,0,0,0,0,0
running,attitudeInput,1618274648.4652703,71.96281011253103,-57.05583231407123,-171.76012493963364,0.6889610679854598,0.5426199424356662,0.3483829983815828,-0.33094641758161863,0.04597817981004715,0.009861631205022335,-0.049317367564439774,0.06814284652225026,-9.826099395751953,0.8540587425231934,0.0811605155467987,145,15,175,-0.13717813346655908,0.4882119305082992,0.5418695365462122,0.6702303156163439,96.16085966835993,53.4265985744022,35.405490935983444,-0.17357553186391392,0.4319248732452198,0.13502467254507697,-0.0341086437695994,0.3667852246493524,0.1568450793986346,-0.2440487890203172,0,0,0,0,-0.13192827692687853,0.7004301861075668,0.6351911299590134,-0.7503616675798399,0,0,0,0,0,0,0,0
running,attitudeInput,1618274648.515455,71.75762862369112,-57.202044536408884,-171.6168546293298,0.6889770069090959,0.5415311136048437,0.34922957311484737,-0.3318033185646328,0.0779597374176979,0.013763815050661564,-0.03289902229189873,0.08572927697553546,-9.821908950805664,0.8472090363502502,0.0681261494755745,145,15,175,-0.137728754709631,0.4891208249034899,0.5423210514654476,0.6690885486311028,96.43949171340438,53.505763579737796,35.600312955490125,-0.2943652911404144,0.41674360732679516,0.0659476851917483,0.05744179135302878,0.3987560775125903,0.1507059021583106,-0.19060838400125082,0,0,0,0,0.23585777262577537,0.7004301861075668,0.610528180605491,-0.7606355150598092,0,0,0,0,0,0,0,0
running,attitudeInput,1618274648.5654154,71.3978439765638,-57.54291882091506,-171.29332752072224,0.6884656042076466,0.5396820831120654,0.3509217872021537,-0.33408421132652777,0.12608504914999008,0.01684458821797371,-0.02442557011127472,0.12952910192944792,-9.779711723327637,0.8812330365180969,0.06862469762563705,145,15,175,-0.13873724675867632,0.49152126559824105,0.5426148638180838,0.6668792479828773,96.99353388059805,53.71976410272902,36.06685046593493,-0.4761295911687635,0.4061968790806477,0.027927354808155155,0.14858960935405635,0.4555617990142437,0.18808485328495486,-0.11888733637523237,0,0,0,0,0.6020263862761596,0.7004301861075668,0.7606908396128024,-0.4725101692783415,0,0,0,0,0,0,0,0
running,attitudeInput,1618274648.6154191,71.11421824731607,-57.85850963178927,-171.02543863197664,0.6878308612594558,0.538180378985927,0.3525058540780571,-0.3361401624536092,0.15857441597938537,0.014296601412534714,-0.025375545214414597,0.1612270340547169,-9.757122993469238,0.899204671382904,0.09303516894578934,145,15,175,-0.13972540645702838,0.49372516713670855,0.5426750723025539,0.6649932601370223,97.46773995106679,53.93005172207159,36.47778701386864,-0.5988391927688718,0.41875773235894914,0.029250711126515117,0.19103825083148607,0.507828059248888,0.23240500321566138,-0.08438480520174049,0,0,0,0,0.7725555392719822,0.7004301861075668,0.7606908396128024,-0.3339029674352403,0,0,0,0,0,0,0,0
running,attitudeInput,1618274648.6652892,70.78788535351944,-58.24250300956496,-170.7129181899959,0.6869856976350127,0.5364361491823725,0.35445495093901974,-0.338597987073372,0.19085751348495483,0.012722139132857323,-0.027737535725831985,0.1932816964068696,-9.771656036376953,0.9057985544204712,0.09964761137962341,145,15,175,-0.1409709023940257,0.49638324312380755,0.5426580253691395,0.6627617581956367,98.03152661620284,54.19038511062999,36.969870849071164,-0.7207693372633995,0.42773377743595475,0.03592153588217786,0.2294300814122179,0.5572838975926429,0.28023080463806566,-0.04762301154235923,0,0,0,0,0.7725555392719822,0.7004301861075668,0.7606908396128024,-0.18621961840097842,0,0,0,0,0,0,0,0
running,attitudeInput,1618274648.715541,70.2186186840754,-58.93484017997769,-170.15647007584462,0.685328915025973,0.533415659668981,0.3579806037758234,-0.34298964936208426,0.23116277032852173,0.01312838110858202,-0.02660171334028244,0.2330584302897615,-9.754405975341797,0.8791114091873169,0.10927541553974152,145,15,175,-0.14325699781661017,0.5011587887481396,0.5424665925079093,0.6588226597878426,99.03842666388803,54.66394580437642,37.8594727759724,-0.8729951711291597,0.4304620462050221,0.025679219611504572,0.2904924524013962,0.6130330346392777,0.3268083530471432,0.004267770809261734,0,0,0,0,0.7725555392719822,0.7004301861075668,0.7606908396128024,0.0222414973079315,0,0,0,0,0,0,0,0
running,attitudeInput,1618274648.7665114,69.56561367495324,-59.74875034377313,-169.49897289544109,0.6831921124961877,0.5300246170581209,0.36211625054328,-0.3481296652511321,0.2665454881763458,0.010376735476493835,-0.024879634569883347,0.2679051513551887,-9.763850212097168,0.8736758232116699,0.05967576801776886,145,15,175,-0.14596823369323986,0.5067709999743034,0.5420145563272551,0.6542909513869876,100.21926412191021,55.22369635304215,38.92186699523614,-1.0066267936876867,0.44689831840061256,0.011897942895578648,0.3474831998666836,0.6719011474122556,0.36430943207395156,0.039891484528379664,0,0,0,0,0.7725555392719822,0.7004301861075668,0.7606908396128024,0.1653528317499752,0,0,0,0,0,0,0,0
running,attitudeInput,1618274648.8153121,69.06854736487355,-60.35258160987296,-168.99640257342648,0.6815482159356413,0.527518297192077,0.3651922496421545,-0.35192484465268764,0.2901717262840271,0.00967996742361784,-0.027524568330049515,0.29163493337686797,-9.772978782653809,0.8440948128700256,0.028542961925268173,145,15,175,-0.14800039862124,0.5109211704322808,0.541621983773522,0.6509232414849673,101.1123073001252,55.63530500240986,39.72910586651954,-1.0958569566371987,0.4534394938220889,0.017649783179233103,0.3749636612517998,0.7080740835637025,0.3999242239968159,0.06681380168491326,0,0,0,0,0.7725555392719822,0.7004301861075668,0.7606908396128024,0.27350799953855265,0,0,0,0,0,0,0,0
running,attitudeInput,1618274648.8654442,68.23697958321611,-61.33701764126204,-168.1675739256692,0.6788037325326957,0.5234098254246067,0.37029901290736106,-0.3579752622577394,0.3187371926879883,0.00394420989574492,-0.03357200716018677,0.32052462379524777,-9.73710823059082,0.8262284398078918,0.05403590947389603,145,15,175,-0.1514493862060077,0.517581612712414,0.5409399001543098,0.6454117925951507,102.59774050806843,56.30025429246328,41.06274878291208,-1.2037385460968062,0.4829411457585471,0.03395646294429874,0.40157499914732026,0.7670768034402132,0.44959668957336707,0.08409488528047425,0,0,0,0,0.7725555392719822,0.7004301861075668,0.7606908396128024,0.3429313885053804,0,0,0,0,0,0,0,0
running,attitudeInput,1618274648.9153142,67.61307127212119,-62.03871254994136,-167.55661952650797,0.6768256311115387,0.5204204391988391,0.37399846676431037,-0.362208197577719,0.3349293606853485,0.0004433846213584766,-0.03888797033905983,0.337179696120793,-9.747553825378418,0.8439589738845825,0.02917751483619213,145,15,175,-0.1539904532055728,0.5222626923398355,0.540458838316945,0.641430327156884,103.69004105279745,56.766211859982874,42.03563657988473,-1.2648888308844939,0.5013909581353341,0.04944004189393668,0.41224634599742527,0.80174268140589,0.48216512376812454,0.09266878835965993,0,0,0,0,0.7725555392719822,0.7004301861075668,0.7606908396128024,0.3773753749104394,0,0,0,0,0,0,0,0
running,attitudeInput,1618274648.965478,66.55443026380783,-63.15970914231034,-166.5336758630891,0.6736177786797903,0.5155434180895124,0.3799908940725439,-0.36886446390650895,0.3621331887817383,-0.0017949301957190036,-0.04540127534747124,0.3649725249862166,-9.752273559570312,0.8559325933456421,0.027515698224306107,145,15,175,-0.1581656597269351,0.5296508422608012,0.5396858706354605,0.6349746218645378,105.49744686932151,57.49549854130215,43.63678866025424,-1.3676244281025702,0.5167023267557314,0.06540223815245877,0.4372818875114696,0.8488919727176956,0.529774619716232,0.11816453451000597,0,0,0,0,0.7725555392719822,0.7004301861075668,0.7606908396128024,0.479799571414508,0,0,0,0,0,0,0,0
running,attitudeInput,1618274649.0154216,65.77232963011294,-63.951128503348755,-165.78297903483644,0.6712815112824028,0.5120791825352927,0.3842809997385786,-0.3734757778816702,0.37889610105514526,-0.006385180281758308,-0.04856035132288933,0.38204860115255473,-9.750442504882812,0.8513489961624146,-0.01834370568394661,145,15,175,-0.16120522300922452,0.5347982234538106,0.5390866137881412,0.6303882605978877,106.81048374438248,58.00217365253212,44.79768296423225,-1.430927681230063,0.5397113664827592,0.07033354079265053,0.4561760097533163,0.887542900516077,0.555642657032004,0.12427576626924328,0,0,0,0,0.7725555392719822,0.7004301861075668,0.7606908396128024,0.5043502552383479,0,0,0,0,0,0,0,0
running,attitudeInput,1618274649.065284,64.9147430121185,-64.76930115283564,-164.9601449967231,0.6688111561009874,0.5084515077075735,0.3887367386831168,-0.3782227515403724,0.3919567900276184,-0.007544816119879484,-0.051865924339294434,0.39544547488447346,-9.743942260742188,0.834709882736206,0.03110550343990326,145,15,175,-0.164380618977218,0.5401002439462272,0.5384312819975516,0.6255897163160259,108.21254027155288,58.51507971888349,46.039733945108196,-1.480246445393093,0.5484164465454696,0.07504622274242392,0.4702804566787654,0.9111351379489008,0.5764118426859735,0.1355571614158382,0,0,0,0,0.7725555392719822,0.7004301861075668,0.7606908396128024,0.5496710639144728,0,0,0,0,0,0,0,0
running,attitudeInput,1618274649.1153457,63.48210572967903,-66.03745283212693,-163.5872511321684,0.6648623627114976,0.5027453375790943,0.39570331959193383,-0.38551789459905966,0.4107685225582123,-0.01203612249559164,-0.05465930346727371,0.4145639719330576,-9.748037338256836,0.8743411302566528,0.0426841601729393,145,15,175,-0.16939438371218793,0.5482654736881528,0.5373346880794354,0.6180468801918263,110.47500250983576,59.28857920229369,48.047316131575094,-1.5512784916986964,0.5724216475152808,0.07158873791840442,0.49783888845580354,0.9532229991505244,0.5990806525331842,0.14369654183846328,0,0,0,0,0.7725555392719822,0.7004301861075668,0.7606908396128024,0.582369440142109,0,0,0,0,0,0,0,0
running,attitudeInput,1618274649.165317,62.420996120100654,-66.90609391689144,-162.56061813972224,0.6620310844105161,0.4988183628739975,0.400477820319986,-0.3905286155529375,0.4273506241416931,-0.013303700948417187,-0.05078679714679718,0.43056340204161514,-9.729320526123047,0.867119550704956,-0.008306088857352734,145,15,175,-0.17284450991078842,0.5538699271323905,0.5364696351940956,0.6128239630813843,112.08916648457215,59.80300581829178,49.492526787426286,-1.6138930066089212,0.5808634769927287,0.04437348607008157,0.5392205516363154,0.9813298480665115,0.6019741374463985,0.15986484101620255,0,0,0,0,0.7725555392719822,0.7004301861075668,0.7606908396128024,0.6473224343534534,0,0,0,0,0,0,0,0
running,attitudeInput,1618274649.2172806,60.638843359511796,-68.23799964305236,-160.81622268053215,0.6574676804555949,0.4927658680515502,0.40778614999044593,-0.3982819407350922,0.43853817754745483,-0.015388597848176956,-0.04661000538945198,0.4412765966066869,-9.764046669006348,0.8993433117866516,0.003443745896220207,145,15,175,-0.17813284736484386,0.5625223745853305,0.5349405418392184,0.6047114051159757,114.67776742029879,60.56436836638141,51.835517014781324,-1.6561211974951013,0.5933256639755313,0.008036192165827821,0.5798448186324109,1.0050718650568948,0.5912097105831611,0.16598266415867702,0,0,0,0,0.7725555392719822,0.7004301861075668,0.7606908396128024,0.6718995977762012,0,0,0,0,0,0,0,0
running,attitudeInput,1618274649.2653046,58.5889261325587,-69.59374553334946,-158.77588072254437,0.6524941559345473,0.48658352322507303,0.41518232886234857,-0.4063391258512701,0.45189367109298706,-0.01442437909758091,-0.04058430735349655,0.4539416688183743,-9.756158828735352,0.899412989616394,-0.01616203412413597,145,15,175,-0.18347207059517076,0.5714710705008974,0.5330739787905433,0.5963144707522187,117.46830502766755,61.30180731550701,54.402258702705545,-1.7065329553960877,0.5915385451698069,-0.03909774026114446,0.6309967898071726,1.0216314291622421,0.5757042352717213,0.18506959591665176,0,0,0,0,0.7725555392719822,0.7004301861075668,0.7606908396128024,0.7485776301628713,0,0,0,0,0,0,0,0
running,attitudeInput,1618274649.316378,57.044762953280674,-70.50144422044677,-157.2194751717058,0.6489611333068368,0.48241329884759976,0.42010848033721154,-0.4118685728492052,0.4610090690231323,-0.015353208521664143,-0.03425297532558441,0.462534700376242,-9.745426177978516,0.9045888185501099,-0.0216716006398201,145,15,175,-0.18701092245282053,0.5775787868030012,0.531637833637948,0.5905851960244752,119.4382771881979,61.77087470621414,56.239025896891384,-1.740937218606211,0.595548141250454,-0.08210124707544955,0.6735686049991721,1.0366303856494894,0.5574599078973269,0.1943981272470098,0,0,0,0,0.7725555392719822,0.7004301861075668,0.7606908396128024,0.7860531886517522,0,0,0,0,0,0,0,0
running,attitudeInput,1618274649.3652482,54.413955798763304,-71.86395771173353,-154.5355840886361,0.6432888457528435,0.476126922820108,0.42747400055468,-0.4204147870206358,0.47373579317092895,-0.014051152507126331,-0.022113483588695526,0.47445973778024114,-9.78169059753418,0.9342256784439087,-0.03595338761806488,145,15,175,-0.1922743307581736,0.5869684489321374,0.5291371851722578,0.5818182370445921,122.56008844756983,62.43629603561836,59.19173673853929,-1.788963726564432,0.5878517086064601,-0.161011928281236,0.7463468175148174,1.0481681206629594,0.5186415648356493,0.21682026168750718,0,0,0,0,0.7725555392719822,0.7004301861075668,0.7606908396128024,0.7860531886517522,0,0,0,0,0,0,0,0
running,attitudeInput,1618274649.415627,52.39906495766853,-72.76563154886833,-152.45870511588487,0.6392584831119844,0.4719125885878075,0.4323301742226922,-0.42630707354944997,0.4819277363395691,-0.012972951049268246,-0.014816742579936981,0.4823299455486753,-9.74906063079834,0.9175497889518738,-0.009207526221871376,145,15,175,-0.1957092660746701,0.5933940339527801,0.5272343953797524,0.5758518003534485,124.75737411895496,62.84603644982919,61.30044405862681,-1.8198728060131675,0.5795398205437287,-0.21308693828188613,0.7940974200558517,1.053218738088556,0.4927469819730496,0.23362566394034542,0,0,0,0,0.7725555392719822,0.7004301861075668,0.7606908396128024,0.7860531886517522,0,0,0,0,0,0,0,0
running,attitudeInput,1618274649.4656081,50.14730117697161,-73.65465002648187,-150.1337143217912,0.6350705606074502,0.4676648524462831,0.4371708289663336,-0.43226916977390833,0.48825882249832153,-0.015057094509065151,-0.010041730667948723,0.4885941364745488,-9.774728775024414,0.9123911261558533,-0.03657103702425957,145,15,175,-0.19913081305372765,0.5998768784434266,0.5251902730550756,0.5697980581661075,127.03844777225804,63.22474908801918,63.50273144451084,-1.8437507944741356,0.581989059313809,-0.25699827151991683,0.8335895653403277,1.063392755212547,0.47013912425041815,0.24033593437819892,0,0,0,0,0.7725555392719822,0.7004301861075668,0.7606908396128024,0.7860531886517522,0,0,0,0,0,0,0,0
running,attitudeInput,1618274649.515288,46.23133668239005,-74.95681894075098,-146.08534883388177,0.6284659108510058,0.4612219233236963,0.44441394735336054,-0.4413628662921369,0.4972250598049164,-0.014681323545336723,-0.002414563860297203,0.49744761681777205,-9.738447189331055,0.8759698271751404,-0.08400803804397583,145,15,175,-0.20424668703951107,0.6097292574231161,0.5218373423145395,0.5605348442708425,130.62238014699443,63.72971344330325,66.98776167888754,-1.8775578616209123,0.5655831682357354,-0.32946926893157485,0.8967869022652213,1.0637446415955907,0.43084699375703944,0.26388925442667,0,0,0,0,0.7725555392719822,0.7004301861075668,0.7606908396128024,0.7860531886517522,0,0,0,0,0,0,0,0
running,attitudeInput,1618274649.565365,41.52757080304009,-76.19607988545371,-141.22776725512495,0.6215164790485691,0.4546740193970217,0.45161842881599523,-0.4505880569990713,0.5055117147541046,-0.015730562733769417,0.0008867846769094467,0.505757185559058,-9.740488052368164,0.8730531930923462,-0.08563943207263947,145,15,175,-0.20933512108711486,0.6196810604680746,0.518183776522817,0.5510533223973494,134.38555613237725,64.14528599833645,70.67018661639425,-1.908790839098895,0.5460181875413066,-0.3899789583956509,0.9506162390984257,1.0609526361584405,0.39910270709516327,0.2887663100351487,0,0,0,0,0.7725555392719822,0.7004301861075668,0.7606908396128024,0.7860531886517522,0,0,0,0,0,0,0,0
running,attitudeInput,1618274649.6154253,37.86399897907564,-76.97301376848102,-137.45595511199204,0.6167126821257818,0.45022409586016576,0.45642203596388625,-0.45677418523675534,0.5108417707061768,-0.017271143498182297,0.0033311911825835705,0.5111445039620908,-9.734560012817383,0.8621386289596558,-0.10382942110300064,145,15,175,-0.21274111011085262,0.6263385654641469,0.5156112987184341,0.5445972916890118,136.98631829203842,64.36759596338408,73.22095556612702,-1.9288742200213391,0.5298421735777319,-0.43446848062235743,0.9891756293763861,1.056615014411935,0.3747444116566158,0.30730502662106707,0,0,0,0,0.7725555392719822,0.7004301861075668,0.7606908396128024,0.7860531886517522,0,0,0,0,0,0,0,0
running,attitudeInput,1618274649.6654694,31.45726946321193,-78.04026002841861,-130.88096180846054,0.6092399372289119,0.44344084602884515,0.4636550168799939,-0.4660589450708422,0.518921180305481,-0.020600878747463226,0.004385833438932896,0.5193484601977321,-9.74250316619873,0.8543735146522522,-0.0956759825348854,145,15,175,-0.21791146225278926,0.6363238104273058,0.511535340957271,0.5347318934324512,141.00392582349923,64.61721112272909,77.16663640916838,-1.959313301363638,0.49715071171067693,-0.4940424881516395,1.0420626544979141,1.0442605004539531,0.3433810673653162,0.34118322140927715,0,0,0,0,0.7725555392719822,0.7004301861075668,0.7606908396128024,0.7860531886517522,0,0,0,0,0,0,0,0
running,attitudeInput,1618274649.7154133,26.47252231478148,-78.66048000456638,-125.77678395702189,0.6040890685332965,0.4388074726591062,0.4684494293051423,-0.4723129591709174,0.524740739402771,-0.02044031501030922,0.006264067531079054,0.5251760548699087,-9.751686096191406,0.8617358803749084,-0.09283135086297989,145,15,175,-0.2213369488711046,0.6430183764228168,0.5086869240514842,0.5279914165457945,143.7563474527449,64.71558884009937,79.87636707613689,-1.9812404188976125,0.45495673170028117,-0.5399667019447348,1.0822883842417466,1.0221772578134265,0.3186601511216316,0.37877127754995155,0,0,0,0,0.7725555392719822,0.7004301861075668,0.7606908396128024,0.7860531886517522,0,0,0,0,0,0,0,0
running,attitudeInput,1618274649.765239,17.903557122172824,-79.42123694029245,-117.01959256650258,0.5960680885130171,0.43174550177669263,0.4756546945726358,-0.48171699895586284,0.5340660648918152,-0.02297707751607895,0.009002283491641283,0.5346359030857096,-9.728082656860352,0.8450561165809631,-0.116395965218544,145,15,175,-0.22652206992140997,0.6530712255936181,0.5041700716143009,0.5176854885242588,147.96371753953898,64.76708309039681,84.02553233222015,-2.0163853429178844,0.38515674644179354,-0.606242350664877,1.1415779519288065,0.985246821959939,0.28422179753359167,0.44055292750245933,0,0,0,0,0.7725555392719822,0.7004301861075668,0.7606908396128024,0.7860531886517522,0,0,0,0,0,0,0,0
running,attitudeInput,1618274649.8154273,11.482588803981985,-79.78686692844246,-110.47001026494341,0.5905384560919333,0.4269292158151956,0.48046924144954606,-0.4880011112496323,0.5403115587806702,-0.02376234822189808,0.009118863191902637,0.5409106981849491,-9.729408264160156,0.8310378789901733,-0.08489571511745453,145,15,175,-0.23001021269447777,0.6597758061002568,0.5010195183892949,0.5106570570685937,150.80922358112434,64.7315254547321,86.83301845278739,-2.039930610372806,0.322441401261043,-0.6384113022045221,1.1726493448472641,0.9492248852392883,0.26979942289736025,0.4932238825053362,0,0,0,0,0.7725555392719822,0.7004301861075668,0.7606908396128024,0.7860531886517522,0,0,0,0,0,0,0,0
running,attitudeInput,1618274649.8652973,4.585229332570371,-80.02102118774116,-103.44962911690641,0.5848738861504501,0.4219892991443463,0.4853441113980154,-0.49425566485191114,0.5470664935684204,-0.026628372373342514,0.00660358140848577,0.5477539829959418,-9.737119674682617,0.8130561113357544,-0.10028727352619171,145,15,175,-0.23358287465851402,0.6664533437230634,0.4977856429647812,0.503476349955738,153.68001722374524,64.64011649102345,89.6578088666771,-2.065410681220463,0.25952281427012547,-0.652465657339529,1.1915958401091773,0.9137432911560808,0.26887005851693885,0.5467226074700356,0,0,0,0,0.7725555392719822,0.7004301861075668,0.7606908396128024,0.7860531886517522,0,0,0,0,0,0,0,0
running,attitudeInput,1618274649.915314,-6.2903198817430335,-80.09477111703809,-92.39421812884613,0.5760928025715952,0.41437919234479914,0.49274557925358453,-0.503595831895903,0.5568296151733398,-0.03161280706739426,0.0027030555498600006,0.5577328181253778,-9.730937957763672,0.7879855036735535,-0.15670238435268402,145,15,175,-0.23907788353389903,0.6764293657181047,0.49273655979893366,0.49243858646197297,158.00537109404507,64.39630629243574,93.90497689172457,-2.102262575252617,0.15745003082603273,-0.6539357572884948,1.2056644698369652,0.8545960458930291,0.2808596529588553,0.6319280769027917,0,0,0,0,0.7725555392719822,0.7004301861075668,0.7606908396128024,0.7860531886517522,0,0,0,0,0,0,0,0
running,attitudeInput,1618274649.9652414,-17.081252519354393,-79.81752751177245,-81.43457859688927,0.5670457787328121,0.40656380877403187,0.5002130334022071,-0.5127883339459018,0.5614364581680298,-0.036368706377506256,-0.0009951109099388122,0.5626140503129639,-9.727099418640137,0.7712306380271912,-0.10718178004026413,145,15,175,-0.24471546956594448,0.6862572790236171,0.48750459025604215,0.4811492080649301,162.2878359491652,64.02485425167289,98.09436242401866,-2.119675229440685,0.054660568629522024,-0.6302299575767171,1.1950582410347368,0.7880692230667776,0.303778487615923,0.7107675055838821,0,0,0,0,0.7725555392719822,0.7004301861075668,0.7606908396128024,0.7860531886517522,0,0,0,0,0,0,0,0
running,attitudeInput,1618274650.0152705,-23.881763583765704,-79.44833908383292,-74.5308596943058,0.5608708586966032,0.4012515310032213,0.5052478570596663,-0.5187925323952927,0.565097971496582,-0.040296756776332855,-0.005077460970282555,0.5665556694678358,-9.727195739746094,0.754341185092926,-0.06580764800310135,145,15,175,-0.2485835795531123,0.6926945471038433,0.4839180847914195,0.473501589861077,165.09953902111076,63.711082886558074,100.8327020257846,-2.133531371129844,-0.004019490705727602,-0.5949169174029793,1.1749870367383166,0.7514750410651364,0.3336474636618288,0.757159459335009,0,0,0,0,0.7725555392719822,0.7004301861075668,0.7606908396128024,0.7860531886517522,0,0,0,0,0,0,0,0
running,attitudeInput,1618274650.065253,-33.163807030237955,-78.64057525256041,-65.10523622462183,0.5513775743080581,0.3930988129713704,0.5128678518520092,-0.5276577113312823,0.5724916892623901,-0.04546006873464584,-0.009616106938123703,0.574374287060719,-9.708621978759766,0.7546674013137817,-0.12531282007694244,145,15,175,-0.25452322982294967,0.7022118643937009,0.47838272040976654,0.4618077476597459,169.23684461682407,63.1374153888906,104.84504449355934,-2.1615157809080854,-0.07897390649200225,-0.5350280762106953,1.142533213974697,0.7083682483436345,0.385889252347146,0.8200542179782088,0,0,0,0,0.7725555392719822,0.7004301861075668,0.7606908396128024,0.7860531886517522,0,0,0,0,0,0,0,0
running,attitudeInput,1618274650.115299,-38.634756385596106,-77.95345442525202,-59.543865471465516,0.5448963130331755,0.38754825333007425,0.517968877656387,-0.5334815846522193,0.5753926473236084,-0.04631823033308983,-0.011326195861697197,0.5773650143262554,-9.749529838562012,0.7811530232429504,-0.10086414963006973,145,15,175,-0.25854928869256133,0.7084657264911278,0.47458470891966886,0.4538699524793443,171.9253221942633,62.686568405112986,107.44261409835315,-2.172518400410388,-0.127519544784657,-0.49540861967183725,1.1184080410195918,0.6779313117403158,0.417794452163145,0.858271181442421,0,0,0,0,0.7725555392719822,0.7004301861075668,0.7606908396128024,0.7860531886517522,0,0,0,0,0,0,0,0
running,attitudeInput,1618274650.165358,-45.77485468066679,-76.73145635756812,-52.26583794068264,0.5348753716452284,0.37904718879665167,0.525625401516733,-0.5421711009940569,0.5850810247039795,-0.0498169223985672,-0.011100532676577568,0.5873029482742508,-9.749947547912598,0.7299425601959229,-0.1278296709060669,145,15,175,-0.264648068731078,0.7177807033296167,0.46865651024507793,0.4417163536133303,175.8466411886966,61.9051295002256,111.22539240774283,-2.209182962990818,-0.17409449753250458,-0.44499518125695725,1.09572323726843,0.6579607272338001,0.46640501674416734,0.9041675267787973,0,0,0,0,0.7725555392719822,0.7004301861075668,0.7606908396128024,0.7860531886517522,0,0,0,0,0,0,0,0
running,attitudeInput,1618274650.2166157,-49.8644000268191,-75.81029758330055,-48.08277136516799,0.5280039410330949,0.3732699589067767,0.5307195815479493,-0.5479216201180813,0.589876933631897,-0.05210205644583702,-0.01118721086859703,0.5922791358843168,-9.731801986694336,0.7486304044723511,-0.08812350034713745,145,15,175,-0.2687431576963865,0.7239327983145998,0.464554447583717,0.43346001424117103,178.37301551841344,61.31639002071685,113.65819230289252,-2.227344124954717,-0.19522596462868463,-0.4109168673512499,1.0780471708037505,0.6494394639431208,0.4969229639877469,0.9255306708483766,0,0,0,0,0.7725555392719822,0.7004301861075668,0.7606908396128024,0.7860531886517522,0,0,0,0,0,0,0,0
running,attitudeInput,1618274650.26525,-53.485113446038795,-74.82043868419997,-44.37007419052053,0.5209822867848127,0.36740863523685613,0.5358244964683754,-0.5536067743392145,0.5954949694252014,-0.054847345801353455,-0.014086593132019043,0.5981813454615932,-9.733352661132812,0.7348756790161133,-0.07995752990245819,145,15,175,-0.272888327053725,0.7300149262318338,0.46033615029958097,0.4250891637808604,-179.17427856381667,60.678268414355706,116.01347810492395,-2.248609107006089,-0.20773915391023487,-0.3666366972101207,1.0542546687300318,0.6481096094530335,0.5357520790718011,0.9418971383487994,0,0,0,0,0.7725555392719822,0.7004301861075668,0.7606908396128024,0.7860531886517522,0,0,0,0,0,0,0,0
running,attitudeInput,1618274650.318504,-58.14906757864079,-73.22284490350557,-39.567983074193414,0.5101623041591042,0.3584392297621142,0.5434697750485825,-0.5620465688813154,0.6029223042106628,-0.05777130753016472,-0.013151422332525253,0.6058265335868085,-9.742289543151855,0.74583899974823,-0.06351369619369507,145,15,175,-0.2791602051551915,0.7390275727767771,0.4537866628826271,0.4122929675888569,-175.64130030450733,59.62678037231325,119.39589058753947,-2.2767246091226485,-0.22112044270027706,-0.3255565543779749,1.0351469522628516,0.6485879405101211,0.5747404577420653,0.9612994694947957,0,0,0,0,0.7725555392719822,0.7004301861075668,0.7606908396128024,0.7860531886517522,0,0,0,0,0,0,0,0
running,attitudeInput,1618274650.3652782,-62.036018468756396,-71.50756225846997,-35.5395786644099,0.49898957528463833,0.34923155519034615,0.5510644127224695,-0.570416284521601,0.611660643157959,-0.06015659228181839,-0.013711992840766907,0.6147646514976558,-9.739609718322754,0.7457049489021301,-0.07802931219339371,145,15,175,-0.2854535919217715,0.7479270759093943,0.44696592258374906,0.3991776547221044,-172.2917422872157,58.46136091080753,122.59228167301845,-2.3097856018811127,-0.22698942973470007,-0.28298501648887797,1.0167331552220658,0.6561267660655195,0.6165319069551206,0.977138296111667,0,0,0,0,0.7725555392719822,0.7004301861075668,0.7606908396128024,0.7860531886517522,0,0,0,0,0,0,0,0
running,attitudeInput,1618274650.4153225,-64.27750649710255,-70.31056756225912,-33.20024930392973,0.4913257771372867,0.34298307924745847,0.5561011254310406,-0.5759454196056281,0.6184987264251709,-0.06332149461126328,-0.013071157227754593,0.6218690709632014,-9.75129508972168,0.7439724206924438,-0.0703384205698967,145,15,175,-0.2896688384185606,0.7537897297370827,0.442243444499564,0.3902739335252853,-170.15974116965918,57.62667055363773,124.62227223300597,-2.3356469166123945,-0.22026436339705863,-0.26127902947179327,1.0105280601183824,0.6700254615852396,0.6410237130756928,0.9815263116088356,0,0,0,0,0.7725555392719822,0.7004301861075668,0.7606908396128024,0.7860531886517522,0,0,0,0,0,0,0,0
running,attitudeInput,1618274650.4653113,-67.19152692728234,-68.4460899252842,-30.13291652293118,0.4795342188427296,0.33343924773515154,0.5635700193478844,-0.5841695253271388,0.6258160906410217,-0.06544102832889558,-0.011478588174581528,0.6293330322495686,-9.756197929382324,0.707577109336853,-0.03653515875339508,145,15,175,-0.2959714965257131,0.7624697413823407,0.4349177921065164,0.37667928112635796,-167.1223594151844,56.29024538422629,127.50837553694511,-2.363330248843223,-0.21612003120907014,-0.2348999544221609,1.0016627732424879,0.6827434829519853,0.6694640718978461,0.9883833621883489,0,0,0,0,0.7725555392719822,0.7004301861075668,0.7606908396128024,0.7860531886517522,0,0,0,0,0,0,0,0
running,attitudeInput,1618274650.5155134,-68.86809659361577,-67.17003799392356,-28.344421735675187,0.4715020753963224,0.3270253771143474,0.5684317755333151,-0.5895977545617204,0.6270933585739136,-0.06613431230401993,-0.00893317554473877,0.6306343070724505,-9.759355545043945,0.6943495869636536,-0.0397774800658226,145,15,175,-0.3001016123079987,0.768163768318316,0.42987084877261067,0.36752483005731706,-165.21624469312135,55.350792931102085,129.32137554188557,-2.36818139773992,-0.2136971545966685,-0.22569492342007602,0.9968689735405815,0.6861718555752928,0.6776881518811528,0.9883852698464415,0,0,0,0,0.7725555392719822,0.7004301861075668,0.7606908396128024,0.7860531886517522,0,0,0,0,0,0,0,0
running,attitudeInput,1618274650.5652804,-71.05850217601026,-65.21397027109693,-25.97276994631084,0.4591966103634139,0.31732283538003586,0.575555848410135,-0.5976455107653831,0.6303669648742676,-0.0667222376189232,-0.004139630313515663,0.6339018093812359,-9.762411117553711,0.6901031732559204,-0.0009804985020309687,145,15,175,-0.306200428569981,0.7765552977944408,0.42205753375119753,0.35365322734962357,-162.5246961254973,53.87482977072916,131.88330817183305,-2.3805819296629087,-0.2088638407377214,-0.21883680389294083,0.9964038008232889,0.69397377468709,0.6869218248115108,0.9893518509477098,0,0,0,0,0.7725555392719822,0.7004301861075668,0.7606908396128024,0.7860531886517522,0,0,0,0,0,0,0,0
running,attitudeInput,1618274650.615271,-72.31633868802395,-63.88834505074522,-24.576478773052855,0.4508358899550623,0.3108409206776387,0.5801137071153936,-0.6029867404657755,0.6310884790992737,-0.06605026230430604,0.00238868342384696,0.6345399998509167,-9.737776756286621,0.6622378826141357,0.027968835085630417,145,15,175,-0.31011366049038236,0.7820694458395245,0.4166776090271228,0.3443496327817925,-160.8515920239493,52.848886478146326,133.48634777468604,-2.3833279296171663,-0.2083513864603752,-0.22982746818018288,1.0051462316649395,0.6953069921760463,0.6801211091586539,0.9899603486475469,0,0,0,0,0.7725555392719822,0.7004301861075668,0.7606908396128024,0.7860531886517522,0,0,0,0,0,0,0,0
running,attitudeInput,1618274650.6687505,-73.44063921181946,-62.546847738814776,-23.302894376885977,0.4423528820455646,0.30432875399758563,0.5845393303316717,-0.6082940970711954,0.6324384646987915,-0.06699503317689896,0.006719189972132444,0.6360124948574674,-9.763835906982422,0.6659153699874878,0.010488839820027351,145,15,175,-0.3139285141047498,0.7875089619207698,0.4111725672193799,0.3349860338770565,-159.26667061538862,51.791634496999855,135.01061955340643,-2.388446394137799,-0.2000646235573758,-0.23300059937208342,1.009199624734228,0.7029762689047433,0.6796870170611674,0.985910372890652,0,0,0,0,0.7725555392719822,0.7004301861075668,0.7606908396128024,0.7860531886517522,0,0,0,0,0,0,0,0
running,attitudeInput,1618274650.7185905,-74.9039856344791,-60.5173875174871,-21.589729685152324,0.42942864728613267,0.29457711847358137,0.5908772931133369,-0.6161812904047476,0.6323180633163452,-0.06826897070026398,0.014529913939982653,0.6361587097224327,-9.744145393371582,0.6094214916229248,0.02222266048192978,145,15,175,-0.31941543191750654,0.7955131789073744,0.40267970819763893,0.32090748922937457,-157.05606004711348,50.158215288582205,137.15477851687788,-2.388017762525952,-0.18657913748712668,-0.24527999912363363,1.0177309274077655,0.7123604033929294,0.670852626068262,0.9762231500830982,0,0,0,0,0.7725555392719822,0.7004301861075668,0.7606908396128024,0.7860531886517522,0,0,0,0,0,0,0,0
running,attitudeInput,1618274650.7655149,-76.14663338221959,-58.470364049756625,-20.073131183955482,0.41628850096355213,0.2848105066876816,0.5968896108690738,-0.6239468340190457,0.6331136065101624,-0.06718953058338166,0.02114899623811245,0.6370200560501997,-9.76530647277832,0.604977011680603,0.032452184706926346,145,15,175,-0.32465943224840366,0.8033054267433155,0.3939419149679869,0.3067676841654605,-155.0264240421118,48.4735896195389,139.13989999435282,-2.391045920399375,-0.1812134115786721,-0.25479884738986236,1.025532385049302,0.7172251600521863,0.6651923993935261,0.9734996243906421,0,0,0,0,0.7725555392719822,0.7004301861075668,0.7606908396128024,0.7860531886517522,0,0,0,0,0,0,0,0
running,attitudeInput,1618274650.8166344,-76.87493807525193,-57.09700773719651,-19.1508541131489,0.4074078925795798,0.27828227294105534,0.6007351330633401,-0.6290429918010346,0.6327258782958984,-0.06908047303771973,0.023744242076277733,0.6369285186362815,-9.7746000289917,0.6039528846740723,0.09050627052783966,145,15,175,-0.3280417057922906,0.8083740385558854,0.3879851761862415,0.29730044754332846,-153.7628136738417,47.32501156055995,140.38357673043413,-2.389596013678443,-0.16612958527276528,-0.25465825810779386,1.0249203539773597,0.7273784164821036,0.6647791915910094,0.9623211290862658,0,0,0,0,0.7725555392719822,0.7004301861075668,0.7606908396128024,0.7860531886517522,0,0,0,0,0,0,0,0
running,attitudeInput,1618274650.8653746,-77.83073136696368,-55.02634439591546,-17.87901542795487,0.39389295408211616,0.2684944464456434,0.6062139330138724,-0.6366032833501284,0.6334879832839966,-0.07074939564085007,0.03079432043850422,0.6381698771644114,-9.746315002441406,0.5655549764633179,0.08038501441478729,145,15,175,-0.3328923493198019,0.815813878313373,0.37882518760588774,0.28305808052588816,-151.9973809246831,45.566333012853036,142.1419623388015,-2.3924938457360176,-0.14742527371285308,-0.2687884008614898,1.0359364120869576,0.7416289003728688,0.6558122101800625,0.9501197218941514,0,0,0,0,0.7725555392719822,0.7004301861075668,0.7606908396128024,0.7860531886517522,0,0,0,0,0,0,0,0
running,attitudeInput,1618274650.9172401,-78.38205591331143,-53.63897870930012,-17.102146018422193,0.3847812825517134,0.26194573075236505,0.6096612526006707,-0.64159251539887,0.6325741248703003,-0.06800078705167771,0.03620254043161869,0.6372477967233601,-9.75065803527832,0.539242148399353,0.10037358105182648,145,15,175,-0.33596082606731115,0.8206625125274074,0.37260084819966977,0.27351777236819497,-150.90513533673277,44.37007971062146,143.2428521729616,-2.3890537813321084,-0.1503653215654338,-0.2819593278577305,1.044033417446651,0.7383337261654346,0.6452827119526464,0.9509824032338626,0,0,0,0,0.7725555392719822,0.7004301861075668,0.7606908396128024,0.7860531886517522,0,0,0,0,0,0,0,0
running,attitudeInput,1618274650.9653234,-79.10888499926611,-51.5505064533063,-16.01395435546888,0.3709255589922915,0.25212509367296354,0.6145634142639037,-0.6489676237494046,0.6342208819961548,-0.07066926464653016,0.04152886923074722,0.6394958319686269,-9.762406349182129,0.49433135986328125,0.07051488757133484,145,15,175,-0.3403667883122289,0.8277546654676743,0.3630483557143689,0.2591689692528991,-149.37499635837034,42.54708400955227,144.80622363501774,-2.3952902105618903,-0.12608077891658798,-0.2912126246927414,1.0527813970864035,0.7577104016498319,0.6409445537116626,0.9360155491482344,0,0,0,0,0.7725555392719822,0.7004301861075668,0.7606908396128024,0.7860531886517522,0,0,0,0,0,0,0,0
running,attitudeInput,1618274651.0153024,-79.52640214478598,-50.15532203417141,-15.344025176264438,0.36162075241332703,0.24555113952980254,0.6176324627520542,-0.6538082366064739,0.6329978542900085,-0.06820098415231705,0.04612506534576416,0.6383299925808362,-9.777145385742188,0.5128470659255981,0.08806511759757996,145,15,175,-0.3431473222696456,0.8323489625360718,0.3565963538751041,0.24956794703502783,-148.42871071763312,41.31401486027043,145.78471244106012,-2.3906807156892524,-0.12704569159430373,-0.3023701978754706,1.0590412902043531,0.7553984028110228,0.6314252555114263,0.9350681429047567,0,0,0,0,0.7725555392719822,0.7004301861075668,0.7606908396128024,0.7860531886517522,0,0,0,0,0,0,0,0
running,attitudeInput,1618274651.065252,-79.89756539229522,-48.75503677335773,-14.705544560035321,0.35221011298920213,0.23896888111167336,0.6205418768647427,-0.658611941301971,0.6333576279258728,-0.06916905299043656,0.050123095322847366,0.6390919866718917,-9.760723114013672,0.45652419328689575,0.14261199533939362,145,15,175,-0.345802130963112,0.8368607249167787,0.3500246192281658,0.2399328640418231,-147.5346393505435,40.06522862409882,146.724066625,-2.3920490262325056,-0.11353598621102351,-0.3114853501385494,1.0659704470130758,0.7654349779313243,0.625463640366607,0.9259991094483584,0,0,0,0,0.7725555392719822,0.7004301861075668,0.7606908396128024,0.7860531886517522,0,0,0,0,0,0,0,0
running,attitudeInput,1618274651.115313,-80.37275084456068,-46.65174934198424,-13.811976845974439,0.3379999121924986,0.22905206164984976,0.6246091564761094,-0.6656985909989745,0.6333917813873291,-0.06741695210552216,0.056379709203243256,0.6394598234213426,-9.76301097869873,0.41742509603500366,0.16758035123348236,145,15,175,-0.3495512272451161,0.8434232611269115,0.3400495110763506,0.2254273100984307,-146.28985578875523,38.16955434863985,148.05156746940526,-2.3921909840976907,-0.10605674844611257,-0.32705154078786214,1.077027595663005,0.770773787357557,0.6145068710857929,0.920760679391241,0,0,0,0,0.7725555392719822,0.7004301861075668,0.7606908396128024,0.7860531886517522,0,0,0,0,0,0,0,0
running,attitudeInput,1618274651.1653287,-80.7584923507789,-44.544733031480554,-12.978788857464737,0.32363779441624074,0.21911341613514546,0.6282997597868049,-0.6726717630069073,0.6317956882095337,-0.06573689088439942,0.0641237979722023,0.6384347984952619,-9.788590431213379,0.4069582223892212,0.17559634149074554,145,15,175,-0.3529979448458002,0.8497655684087098,0.3298850406659352,0.21087150027089577,-145.15299985654306,36.24790519561163,149.29670590913346,-2.386173993783923,-0.09781257848863234,-0.34959284504971344,1.0908393774367497,0.774475968513146,0.5964404346588491,0.9128038435824528,0,0,0,0,0.7725555392719822,0.7004301861075668,0.7606908396128024,0.7860531886517522,0,0,0,0,0,0,0,0
running,attitudeInput,1618274651.21637,-80.97373847123704,-43.135427395685696,-12.449820540952203,0.31396020316058754,0.21245943032012324,0.6305692676228343,-0.6772535566750564,0.6332577305412292,-0.06629262224054337,0.06648201103925705,0.6401796020224163,-9.778284072875977,0.3910335600376129,0.18439891934394836,145,15,175,-0.35514887381033533,0.853870888997307,0.3229932898781206,0.20111965853170002,-144.44710861052863,34.95143137334217,150.0875150081394,-2.391703839722528,-0.08514630177481253,-0.35344884418834555,1.0955210763569785,0.7853874744509257,0.5956689273007251,0.9058025292067778,0,0,0,0,0.7725555392719822,0.7004301861075668,0.7606908396128024,0.7860531886517522,0,0,0,0,0,0,0,0
running,attitudeInput,1618274651.266021,-81.23566632873835,-41.01995841541616,-11.697389388759841,0.2993548395809098,0.2024368808668457,0.6336709972762222,-0.6840080821856919,0.6326824265098572,-0.06358976766681672,0.07227897252559662,0.6399648124980595,-9.781134605407715,0.3162984251976013,0.22154077887535095,145,15,175,-0.35813582102659147,0.8598230459986734,0.31254181568870754,0.18644215379891527,-143.4657557711828,32.989092142502344,151.21282117667553,-2.389541132111157,-0.08044750779113802,-0.3691511549694454,1.1058596541817305,0.7879453909313183,0.5838010842582486,0.9017153475086609,0,0,0,0,0.7725555392719822,0.7004301861075668,0.7606908396128024,0.7860531886517522,0,0,0,0,0,0,0,0
running,attitudeInput,1618274651.3153439,-81.37419499890491,-39.605733341208925,-11.21664658706498,0.289528706196307,0.19572097782058862,0.6355446838439072,-0.6884398172440301,0.63361446434021,-0.06552754447078706,0.07536336388111115,0.6414365012384148,-9.79765510559082,0.30252063274383545,0.2373950481414795,145,15,175,-0.35997656792372246,0.863662405994902,0.305472915645905,0.17660808821722995,-142.8576593341827,31.66728168769327,151.92914891455257,-2.3930679636103185,-0.06166357190005567,-0.37674130567553515,1.112473624450814,0.8024745626118557,0.5796809604583244,0.8896800222972829,0,0,0,0,0.7725555392719822,0.7004301861075668,0.7606908396128024,0.7860531886517522,0,0,0,0,0,0,0,0
running,attitudeInput,1618274651.3652816,-81.52570436018755,-37.48432144837189,-10.529996672366696,0.2747246674786254,0.18560199281761472,0.6380306369171522,-0.6949785347015992,0.6336051064109802,-0.061097757073402405,0.08101097847938538,0.6416783816084639,-9.78590202331543,0.2344818115234375,0.25587135553359985,145,15,175,-0.3624713573735241,0.8692174199466347,0.2947765925875231,0.1618096177846054,-142.01752122978678,29.669197769501057,152.94996955282397,-2.393041440294233,-0.06354512699968384,-0.39286054867026304,1.1238622730716483,0.8011347248334006,0.5682735570208268,0.8910011052590744,0,0,0,0,0.7725555392719822,0.7004301861075668,0.7606908396128024,0.7860531886517522,0,0,0,0,0,0,0,0
